,Venues_id,Name,lat,lon,category
0,4cd5ca35dfb4a1cdbb6e5b5c,Hotel Attica21 Barcelona Mar,41.40534210718485,2.212155726898907,Building
1,51d29781498e57f455f58510,Pool Hotel Attica21 Barcelona Mar,41.40538,2.212177,Cocktail Bar
2,4efef27fbe7bbcd4f2bd2081,Cursa dels Nassos,41.40683267699601,2.211329011613347,Hotel
3,4ee3a6b84690f8893fc15cce,Eix Estels,41.40467408223548,2.21199631690979,Food Truck
4,4dda3022d4c05d50972a65a6,Lucas Mar,41.40536861722394,2.2113194059848325,Gift Shop
5,4e8aacc3722eef3e49dc6aa3,Centro de Pilates PowerHouse,41.40401840760395,2.2119293674508422,Office
6,4ce400fd77ef224b6b30467b,Escola Grèvol,41.404867492528325,2.2125105195053387,Shopping Mall
7,50374158e4b03c716c7478d2,Entaula't,41.40513261077358,2.2129956190966653,Beach Bar
8,4e4a73fe14951b66ae8e31cb,Vanas Dive,41.400390454252644,2.2125938987193705,Mediterranean Restaurant
9,4e2589eaae6035bd16f649be,La Terrassa De El Comedor,41.4024639,2.21231,Beach Bar
10,4df5515752b100c2d801017c,Relevant,41.3990200993595,2.212277149554379,Office
11,50579f04e4b06c4e2622c736,Gaudir,41.400761,2.214353,Playground
12,512e0e26e4b0091336ba9d28,Quiosc Modern,41.38193280062478,2.171838660192877,High School
13,4f269726e4b02a95007b5c7a,Granja Bar Extremeño,41.411874455684035,2.213932212259715,Sausage Shop
14,4dbed966a86e0e98a21a9cfe,Maresme Centre sport,41.41217103867232,2.2134471026065254,Toy / Game Store
15,4e679ee7fa76f38efb318838,Camp Municipal Del Maresme,41.41206981509938,2.2140680284382728,Playground
16,4ee9dfa082315c09687f6507,La Caixa Diagonal Mar,41.4101698048021,2.213927409168298,Miscellaneous Shop
17,5cd9d0547dc9e1002c09bb54,Enrique Tomás JAMON-TAPAS-VINO,41.41081,2.21389,Breakfast Spot
18,539deba3498eab4892028203,Bar Bodega el Triangulo,41.41009165044624,2.212846726588575,Kids Store
19,4f1dd669e4b04ae0859392ad,Granja Montserrat,41.41050468064663,2.2136536338020076,Gym
20,53bfbb10498e13b13a140a56,Barça Kebab House,41.41050033828621,2.2131445120957194,Tapas Restaurant
21,53d3b7a6498e572d75f90757,Peluqueria y Estetica Cubells,41.410093,2.212885,Road
22,4ca1ee9e79d9b1f74261c399,Med Fitness,41.41160287649336,2.2136536338020076,Bakery
23,5824e86fb04e98054fe13d55,Okinawa Sushi,41.410248,2.2125757,Post Office
24,5a5227daacc5f56453c4ec16,Vapiano,41.410010761395945,2.214656967777391,Office
25,4e1d38a4ae60cec370df36a1,Pastisseries Vila Barcelona,41.41155794608753,2.2119900296246993,Bus Line
26,4c795335bd346dcbb3fff4ef,Tram T4 El Maresme,41.410581761705714,2.2155686117276083,Miscellaneous Shop
27,4ec3d70cd5fb255ab41768eb,Cottet Sol,41.41070923183282,2.2154510021209717,Bakery
28,4f1d0db5e4b0e6badd3ee872,Bar Triángulo,41.410871103912605,2.2133208988819915,Office
29,50634951e4b0720c96abaa75,Paco Martinez,41.410200628563246,2.2156421452674664,Ice Cream Shop
30,5aa4221a3c858d71bdf3c74f,Abbasïd Mediterranean Kebab,41.410072,2.215297,Office
31,4c56e6b2a31176b0b068d0bc,Clínica Dental Diagonaldent,41.41032,2.21365689,Professional & Other Places
32,53abf3bc498eefd89b6d74dd,La luz en tu vida,41.411652,2.21422,Restaurant
33,524149c193cd62168b4263eb,Cerrajeros Barcelona Opendoors Serrallers 24h,41.411678826930846,2.214034795761108,Restaurant
34,56d93ccc498ea0337a4e9441,centre medic forum,41.410138,2.213597,Parking
35,51cca385498ee7a32b423357,Fruites I Verdures Diagonal,41.41048106887035,2.2129043623399167,Café
36,4ffece98e4b0346121443966,Parada Bus 2259,41.410552,2.215835,Coffee Shop
37,4ee9b980f79057ab3f5ce9da,Hilti Pallars,41.41166771176802,2.2119725933792194,Restaurant
38,4f566f9ae4b07b61ca8f7331,Cabina De Suicidio,41.41052361630839,2.2153011141338523,Building
39,50bc644ae4b0e31954e65921,Skyline Eventos,41.410247802734375,2.2129359245300293,Cupcake Shop
40,51cdcc32498eefe164f68c40,DiagonalDent,41.41049553478104,2.2131973452133984,Cosmetics Shop
41,4e67868245dde0f9e2740e4a,Escola Bressol Diagonal Mar,41.410971793409075,2.2130191061428106,Bank
42,4d0f354c59606dcb08366d3e,Cafe Expres,41.412784,2.2138636,Spanish Restaurant
43,4d44504dc3e5f04dd40d9920,dream's,41.41142109486881,2.2158342766176653,Vacation Rental
44,4d6cb2cacb7a8cfa12885379,Granja Sierra,41.4110909186277,2.2157526206939604,Bank
45,4dcacdadd16495ca5af30b28,La Casita De Chocolate,41.4106546,2.2154174,General Entertainment
46,55145a48498e9220843f99da,Clarel,41.41192144635779,2.1775442586878544,Tanning Salon
47,4d93119ad176a1cd024030f0,BBVA Oficina,41.41178843440396,2.17750967133321,Salon / Barbershop
48,4c6d237946353704ac2708bc,L'oliva,41.41151516729873,2.1770489043806163,Dessert Shop
49,4ebae590dab4b503241b5096,Cal Otilia,41.41157680493017,2.1770536058939087,Bike Rental / Bike Share
50,4fe7542ce4b0b3b973de7570,Wu Mart,41.41176007471426,2.177511438317514,Shoe Store
51,5a4514bc9cadd968685b7a30,JAZZ BCN Apartments,41.41198861152583,2.1773260831832886,Pharmacy
52,4eb122e49adf1abeffa27855,ING Meridiana,41.411779781944155,2.1775202626065515,Health & Beauty Service
53,4be84a6d947820a1d9b7b4db,Llevadonas,41.41182467846439,2.1781345663141036,Residential Building (Apartment / Condo)
54,55697c6d498ead1a6d43b756,Hostal Ciudad Condal,41.39334913224365,2.161835640587791,Miscellaneous Shop
55,526838a411d2dffe30c9d239,Капитана (Барселона),41.411865234375,2.1767899990081787,Building
56,4cd7e8337bb06dcbaa569fb2,Bonpreu,41.41249045273082,2.1763475784004536,Bakery
57,4da6cea3ec8ea25d4ff91dca,Solmania,41.41228363734276,2.1758171995808198,Bakery
58,4eebc4e75c5c794ad02b1a1e,Peluqueria Colors Unisex,41.41247352463061,2.177189117990333,Spa
59,5c532756c58ed7002c20dc48,Carme 13 Xocolata I Pastissos,41.411466,2.176945,Candy Store
60,4eef5390d5fba9d69695fe3e,Bicing 164,41.41179744898917,2.1775321779560985,Café
61,5c73f6cbd48ec1002cd5a319,Zanco Zapateria,41.411861,2.177521,Parking
62,4f215a261081200df2aeecce,Albareda-Pérez,41.41182142146149,2.17737628638725,Trade School
63,5db7fee84a134b00082405c8,cb&t,41.412787,2.176544,Café
64,50533b7de4b017bb255bc23b,Holland Heineken Huis,41.41171877089005,2.1771459253938286,Chinese Restaurant
65,515c3db5e4b00578e8a22358,Basar,41.41284718763171,2.1773714871878678,Bike Rental / Bike Share
66,510c45c4e4b0809a7bed9f15,Alguera Apartments Industria,41.41148711184053,2.1769188431128796,Sausage Shop
67,4e634fb5d164ddd5e6249178,Forn de la Cantonada,41.4112162,2.1768704,Bakery
68,4d8b753bd85f3704a72d15dc,El Petit Forn,41.41202607951381,2.178686486947612,Recycling Facility
69,4e3f827d45dd68e3275492f9,Sant Pau Centre Terapèutic,41.41160178746951,2.1748039888538897,Coffee Shop
70,4e4cddde8877d76263064e4b,Maxidolç,41.41177706604469,2.177395483189894,Student Center
71,4d8a550e26a36ea8b3a6f2ad,Motos Salarich,41.41221916641631,2.1770499419943667,Italian Restaurant
72,4d4682ab1911a093caf9ebd8,La Granja,41.410885606496315,2.1765556307270484,Spanish Restaurant
73,4bc62d26db8fa59347e59b37,Garatge Carles,41.411712434701656,2.1775442586878544,Tailor Shop
74,52764edb11d2be974d0bad95,Ies San Josep De Calassanç,41.411730719792125,2.176642014829089,Fountain
75,5e40294e448f0b0007be424f,Pannia,41.411978,2.177731,Bakery
76,4ca099ec542b224b521d07a0,Paradis D'or,41.41154777262765,2.1784369219973194,Spa
77,567c33da498e888ed040373d,Bicing 120,41.41173470262096,2.17759705011173,Medical Center
78,5bdd870681635b002c3a9154,Embutits i Formatges Xavi Gracia,41.41214,2.177903,Cocktail Bar
79,5bd3376db5cb76002c0cf73d,Vivari,41.41171371463663,2.1784927686223945,Park
80,5c4e10c4acc5f5002c31408c,Punto De Reciclaje,41.411265,2.178884,Café
81,5c45699304d1ae002cd37f88,la medi,41.411465,2.176796,Café
82,4d024c400dae3704091dc942,Escola Grimm-Virolai,41.41250012328514,2.179200019176668,Bed & Breakfast
83,5c5c99419ef8ef002c1fee84,Pizza To Rico,41.412177,2.177833,Arcade
84,4d83664661676dcb872d5ae4,O Toxo Verde,41.411554232355485,2.178413213495722,General Entertainment
85,5c990a98fc9e94002c1cb57b,Arreglos De Ropa Guiller,41.411003,2.176852,Café
86,5c44d7a7f96b2c002cdae106,Fuente De La Esquina,41.411272,2.178896,Bar
87,565ee842498e5954cc0a00d5,Mon Pa,41.41214370727539,2.177614688873291,Bar
88,53347996498e72792bc91747,Oak spa,41.411482,2.178406,Residential Building (Apartment / Condo)
89,4d791d99ece5a1cdeb45a0a4,Llevadones,41.411656123737394,2.1780001866620395,Salon / Barbershop
90,4d795981ceaa224b3916f870,Moorea,41.41264779452163,2.178430264964168,Wine Bar
91,4ead8b94e5fad025f82b80bf,Plaça De Les Heroines De Girona,41.41212097413997,2.178804352769448,Bar
92,5cb5636306fb60002c7a0faf,Croissanterie,41.411113,2.176611,Bus Line
93,4e5f5269ae60c16e993fe84b,Scotty's Blues,41.41145951468799,2.1761813015331795,Chinese Restaurant
94,55915591498ef8e4088f7a1e,pack&flat apart,41.41174149559333,2.178518763027522,Restaurant
95,56ffe24b498eb6f0aca5061e,Espai amb Cor,41.412508466841686,2.1770019503713556,Tech Startup
96,5c640b7e1c9e2e0025bf1188,Xcape Room,41.412373,2.1763403,Medical Center
97,4dd25fde45dd9197faf37d77,Savory Express,41.41121139754723,2.1762052969009797,Music Store
98,4e7e56ab9adf78c3ab8ffe03,Bar 368,41.4117768,2.1780825,Residential Building (Apartment / Condo)
99,4c4981b8a3ace21e4060af3b,Villaverde,41.41090515924933,2.176589224524817,Other Great Outdoors
100,4f60ebcee4b0533a6f6f2626,Barcelonahomee,41.411456,2.176857,Miscellaneous Shop
101,516fdf63f2e78c13aee4e35b,Christopher Velasco Stylistes,41.41166690279841,2.17730909764244,Laundry Service
102,4fbd323ee4b0d314f1dde5dd,Jalisco,41.411341,2.176631,Radio Station
103,4ec371b0b8f7c5f293dc0307,Bodega Montferry,41.411605,2.176248,Tapas Restaurant
104,4ea1c1239911d5eed5e0a053,Bus 0212,41.41148377801164,2.176910766428545,Plaza
105,5b33972df00a70002c0ec985,Mala Jianghu,41.41142,2.178396,Road
106,4e71b6ccd4c0f5c14960e0a3,Restaurante Mora,41.411716323441325,2.1764980414177537,Bar
107,56b39537498eb607bdbd98d8,thethings.io,41.411353,2.177899,Spiritual Center
108,4c6e4389a437224bdd6d2fb1,Centre d'Investigacio de Medicaments (CIM),41.41167974915411,2.176219694127797,Dance Studio
109,54469292498edf77db3a870b,"Gymusic, Escola De Musica",41.412052,2.177845,Non-Profit
110,58cc3dee005a0f0582816118,Airbnb Ariel & Liza,41.4123,2.1786444,General Entertainment
111,51c5c35e498e5479a00e7593,Carrer De La Independencia,41.40993127552811,2.180347088946562,Coworking Space
112,4f7ffca8e4b0a458b9866ca0,Euro Basar Angel,41.41179263595036,2.1773042984502187,Restaurant
113,4ec6954361af9e142ea04b9a,Tintorería Felip,41.41186496177466,2.177429077614213,Nail Salon
114,51a5d9b6498e44cabb163836,Telefónica Sant Pau TdE,41.41169623149909,2.1773042984502187,Medical Center
115,513d8d4a5262e60c794d0b93,BAR LUMBRALES,41.41161043273029,2.177009582519531,Coffee Shop
116,4b656a02f964a520deef2ae3,Plaça d'en Joanic (Plaza del Joanic),41.405930109258975,2.1629762343225787,Dry Cleaner
117,500e8c32e4b0e5847ad4834f,Carrer Dos De Maig,41.41132975525462,2.176152507108698,Sporting Goods Shop
118,4f19f7f7e4b064e65a763b9b,bar villalba,41.41163956539517,2.176334872108061,Supermarket
119,5668a9c2498ef64651a052c1,Dianètica i Cienciologia,41.41125856134742,2.176925163880924,Breakfast Spot
120,4d7951f57418a14349adb85b,Escuela De Baile Rocio Gomez,41.4115388,2.1779066499999997,Arts & Crafts Store
121,5280a4ec11d2fe39ac11ffc1,abd Associacio Benestar I Desenvolupament,41.41259337447294,2.1775490579056496,Bed & Breakfast
122,4eeb96d68b814fef89c699f6,Fiesta Veneciana De Navidad BCNDM,41.41156740937635,2.1758405686904,Nail Salon
123,54d9ec35498e40348d7599e8,Tropop,41.412622,2.176282,Bus Line
124,4e36b357d22d86185a78abe0,O'Casiñas,41.410869,2.177222,Coworking Space
125,4dccefa0fa7664b7c681ee59,Ingepag,41.41184260308551,2.1775778532231604,Professional & Other Places
126,51dc360c498e7cc85a3db44b,Gaudí peluquería,41.41168212890625,2.1764631271362305,Paper / Office Supplies Store
127,4e5367a381dc6e249dd989a1,FIART Centre de fisioteràpia i podologia,41.41137708726877,2.1764302253723145,Optical Shop
128,5328110f11d268d02575d8bc,La Bona Taula,41.41236553477172,2.1779042014417764,Cocktail Bar
129,56557e8138fa7003824d1fa9,Lavandería Bugaderia Autoservei,41.41202163696289,2.17812180519104,Hospital
130,530e31b3498e72fda3164e39,stand up surf,41.412648,2.177034,Breakfast Spot
131,4f855a44e4b019ac20854ad1,Bonpreu,41.40731484349667,2.168879828932404,Office
132,4f7367fbe4b043e3bc810b65,corcega 661,41.41100636922922,2.17759705011173,Hardware Store
133,4fe4838ae4b0784c93bf0b84,te&la,41.41238021850586,2.1778290271759033,Hotel
134,4fce486be4b0349ae319678f,Barcelona House Experience,41.41133640632668,2.1764260548847094,Park
135,514b0013830201e4d301de56,ÀNGELS I Perfumeria i Saló de bellesa,41.41128053028092,2.1769559383392334,Gym Pool
136,4f5125dee4b0b5f86910d7eb,Tmb 0224. Parada Bus,41.411137,2.177131,Dog Run
137,4e8c568ee5fa774802dce7db,Intelsa,41.411375776001755,2.178878460927352,Bakery
138,4e1356af1f6e671dd9f8b4d0,Hogar Dulce Hogar,41.411609,2.177089,Café
139,4d5285f4bd6ff04d4299fc0c,Copy Art,41.411623180697745,2.177414680000722,Pool
140,4f268b83e4b06176465c0a68,Òptica Sant pau,41.41179263595036,2.17737628638725,Residential Building (Apartment / Condo)
141,51f2fa4b498e3422638c962e,Mojito's Lounge Club,41.41174167275934,2.177227511444227,Mediterranean Restaurant
142,4f8fe43be4b03376fcfcaac8,Servicio Medicina Nuclear Vall d'Hebron,41.411040948562736,2.176761993023508,Other Great Outdoors
143,4f845162e4b07ae141509ff0,El Raco de la Merce,41.41100311279297,2.1768853664398193,Bus Stop
144,52cbd92d498e6fd190820fa1,Lemonade Stand,41.412574768066406,2.1775319576263428,Cosmetics Shop
145,4fabcb5ee4b0d35ca48ae4d6,Ortopedia Porta,41.41286520134383,2.176747595623299,Spanish Restaurant
146,4adcda4cf964a520cf3f21e3,Vincci Maritimo,41.40816571140429,2.2120795324039353,Hotel
147,4d3c182605b8721e4b4c8937,Parque de Diagonal Mar,41.40742617998394,2.2147750854492188,Historic Site
148,4e2b02fc8877b69d49db6c14,Piscina Margherita,41.407978,2.212653,Café
149,4ff9ee5ce4b0f33163e4b1d1,Area Perros Diagonal Mar,41.40741933216721,2.2132741934949185,Housing Development
150,4d88539f5ecdf04df99e938a,Bar Avenida,41.410297979333826,2.2126400470733643,Toy / Game Store
151,4e380dae6284fcf739a19389,Piscina Llull 350-360,41.408259314042766,2.2122408528697344,Bank
152,50cc6998498ee21acf541e8f,Illa del cel,41.40688197200911,2.2132549814122773,Building
153,4e1b509e88777d13d043d1c0,Restaurante Jardi De Mar,41.40823050122312,2.2121262859041577,Bar
154,4ba151f9f964a52048ac37e3,Llull322.324,41.40848248537538,2.212659410904794,General College & University
155,51c54c24498ea995461ef90b,Carrer De Josep Pla,41.408440497232526,2.21539237573415,Other Great Outdoors
156,5734baf3cd10d4113c6f74a0,Parada Bus 2268,41.408295,2.2119443,Historic Site
157,54a1a6f8498ecbbfdba8a64b,Inglot,41.40966640680536,2.2138649690263676,Bank
158,50661095e4b094f28a50a90e,Please Plats,41.40691281982952,2.2117372527142978,Gourmet Shop
159,4bdee47bfe0e62b599070606,Rent Top Apartments,41.405929439526965,2.2141313552856445,Residential Building (Apartment / Condo)
160,532d6295498e0d334187393a,Torre de les Aigües del Poblenou,41.40593318572332,2.2123376139801754,Bank
161,4d56687bfb65236a541705b4,Bar La Chimenea,41.40649124810019,2.211986293556036,Moving Target
162,50814c33e4b0d5064a27ccdb,Межгалактическая Таверна 2,41.409732242027715,2.21323576933781,Coffee Shop
163,4f143d39e4b07e9ecd2fa92f,Sala Play Station,41.40760976969194,2.2125201253872615,Tapas Restaurant
164,5cd962750802d400398466b8,Eurekakids Diagonal Mar,41.409965,2.21416,Playground
165,4d94eb283048b1f734403c64,"SabadellAtlántico, BS Diagonal Mar",41.409104000777006,2.2149868961423635,Candy Store
166,4d85dc315091370417549f5b,Illa del Bosc (Diagonal Mar),41.40927172240126,2.212892621778398,Office
167,4fc87307e4b011cce4ba2eef,La Colmena,41.406524,2.211905,Ice Cream Shop
168,4f83e8f0e4b072142dc6bdc1,Torre de las Aguas del Besós,41.405917153433094,2.2126682831457125,Bar
169,4d94c96c1231b60c1e1e82a1,"SabadellAtlántico, BS Poble Nou",41.409287,2.215509,General Entertainment
170,4e3a882462846d37888b644f,L'hort D'osona,41.406025743397585,2.212659410904794,Asian Restaurant
171,51693ea8e4b065db53bc5d33,Appartment Joseph Pla,41.40928164627383,2.215195443037584,Italian Restaurant
172,4f8df6bfe4b019b496f5432c,#el_leonnegro,41.4086171101238,2.211449146270752,General Entertainment
173,4c4c886f42b4d13a0aba3f80,Keric,41.410024209924494,2.212164709117137,Café
174,4dfc8d06a809d61e2fc020dc,Area de Joc Infantil (Diagonal 42),41.40999502177815,2.2127794849716578,Korean Restaurant
175,5bb8dc6e89b06a00390cce44,mas que dulce,41.409279,2.212846,Chinese Restaurant
176,4e98796561af7d268f4ac481,Les Termes,41.409014624605796,2.211655604198801,Men's Store
177,4b894967f964a520a42832e3,Farggi,41.40999132921719,2.2145010621960783,Other Great Outdoors
178,4de06f1345dd3eae876f3c54,Carrer De La Sort,41.408422,2.211949,Breakfast Spot
179,4e10466fb61c637b97a2a436,"Piscina - Selva de Mar, 18",41.40685986579943,2.21323576933781,Building
180,4da19a1db3e7236ad2cb0c79,Bar Kim,41.40988848442396,2.211127281188965,Pharmacy
181,4f2d9916e4b0bd78b707946e,Lavabo De Marghe,41.407905,2.213348,Nail Salon
182,4ca0a71646978cfaa149b57f,Zentropa Spain,41.405926,2.212631,Strip Club
183,4f08b809e4b0ef60eddb781a,La tagliatela,41.40825593631516,2.211636392804848,Pool
184,58228864b078be59c63e35fa,carrer de Llul 350,41.408982,2.212522,Dive Bar
185,4e075096ae60a90eabc81fdd,Bar cafe Montserrat,41.41000379629224,2.2142588236745686,Restaurant
186,4c38da15dfb0e21e5367afa8,Mango Restaurant I Copes,41.40924887383966,2.215082895048286,Event Space
187,4d8767e702eb548191d169f5,Cortefiel Diagonal Mar,41.40972912311554,2.21324622631073,Art Gallery
188,4e9eb4e61081a02e637f2eae,Sphere Mania,41.4070721154624,2.2128868103027344,Ice Cream Shop
189,51d3f9a8498ed659550ddc73,bar la Fundición,41.40703559436254,2.2121262859041577,Circus
190,4dcd3903b0fb25f6e3247b26,Home & Sun,41.406832,2.213764,Pub
191,4d3b60371fc36dcb580271f5,F Pujades,41.406586,2.213937,Building
192,51515a18e4b0c1bc429cc95b,Benai,41.408829,2.21522,Office
193,527570fa11d216db72dde660,Mikala,41.40920010947393,2.214984101586807,Office
194,572ae0ac498e845e0433ee21,Party Appartement Barcelona,41.406136,2.214201,Building
195,4e40da2aae60920b0172e59f,Penhouse,41.406831,2.213767,Office
196,4fef9238e4b0eb758557de89,Sofa Marghe,41.407715,2.213564,Bank
197,4fc76ab9e4b0420e6fbf0b55,La Piscina del apartamento,41.40702,2.213568,Playground
198,4ea40356b80355a98264246c,Supermercats Poma Vermella,41.406316,2.21146,Residential Building (Apartment / Condo)
199,543412fb498e0f62072cf8ab,kala mar,41.409270023193564,2.215089772188569,Post Office
200,555f579f498eb6b125ca1006,20' fit Redidence,41.40843,2.215446,Medical Center
201,4e298106c65ba11f4c66fde4,Café Di Lorenzo,41.408711197900715,2.2143692957171583,Student Center
202,4e50369162e14b77e3a811c5,3 Floors Flat In Barsa,41.40844,2.215217,Bookstore
203,4ea07a6ee5fa13c70e8795e0,Oficina36,41.4091318,2.2114667,Salon / Barbershop
204,51695ce0e4b0184c265151db,yogulove,41.4066047668457,2.2117209434509277,Tapas Restaurant
205,52c829fc11d28f85e3201c8c,Circo Alex Zavatta,41.40926350713744,2.2127746820028524,Yoga Studio
206,4c08fa34340720a16cea8393,Dreams Pub,41.40741327974037,2.213163724131359,Theme Park Ride / Attraction
207,4c573ed530d82d7fcf66d962,281 Passeig Del Taulat,41.40625664659823,2.2142876424422338,Tapas Restaurant
208,4d592fae3281b1f7bc20b82f,Icnet,41.40969,2.212055,Mexican Restaurant
209,4b546bd9f964a520afba27e3,Sara Lee,41.407830188208976,2.215848686501879,Health Food Store
210,4dc106b6fa764d03e9f4e338,Reparalia,41.406642279512056,2.2142155955575555,Toy / Game Store
211,4cc9e688e7926dcbbbad5f77,Zentropa Spain,41.40566498005267,2.2125393371572386,Latin American Restaurant
212,4efd79cd29c201c6fb135f1b,Caixa Penedes,41.4099073323082,2.211751661291183,Bar
213,4e173e19a8097d08b22b1599,Area Joc Infantil - Diagonal 58,41.409578510295624,2.2114586877983107,Chinese Restaurant
214,4e4ba33c922ef82562173f5d,YouStylish B400,41.40708820934615,2.213315963745117,Japanese Restaurant
215,4b862a02f964a520968131e3,Correos,41.407313523300026,2.1774226427078247,Indian Restaurant
216,4cd835f215d8b60cccdc640e,CROT,41.40785053195038,2.177389484267244,Beer Store
217,4c1ab0ac624b9c74bb771204,Centro de Estudios Parker,41.40793407956472,2.177207551278498,Hotel
218,4b9e78d0f964a520d8e636e3,Cosmic Comics,41.40721010029208,2.177585801528039,Salon / Barbershop
219,5c49aaa3d48ec10039863ac4,The Wee Barber Shop,41.407686,2.176653,Bank
220,4e80c43f2c5bbe5d074aa21f,Bar El Sol,41.40797701313727,2.176556,Health & Beauty Service
221,56a37eaf498ea4930a107582,Yogabody 3,41.409040962389305,2.176691062175799,Grocery Store
222,5634a810498e56368c69a9cd,Tactic,41.40736763602702,2.1771747204535616,Gym
223,5b6dfe91dd12f8002c4261b7,Casa Diaz,41.407288,2.1770492,Diner
224,5ab3b531625a6620fb1c3f27,La Chula,41.407257,2.175899,Mediterranean Restaurant
225,517eaaa8498e2f01a4de9c16,Granja Armengol,41.40673918952703,2.1774434752323066,Deli / Bodega
226,5183fc9b498e2f0dca9c2a34,Cosmic wars,41.40738773169006,2.17730909764244,Convenience Store
227,5244a4ce11d2bb4e5586b333,Arepazo,41.408424377441406,2.1778829097747803,Bank
228,4be2fadbd27a20a17ee2905b,Bar Castillejos,41.407369919999994,2.17720499,Playground
229,4da057165970b1f73941571e,Nueva Epoca Restaurante Chino,41.40755311455454,2.178434762622227,Paper / Office Supplies Store
230,5d9b6e3a1d307d0008450c72,Kiwami,41.407143,2.178152,Office
231,4e91a19a02d5ee38b7373133,Dechenling,41.40733023790355,2.176046927709803,Theme Park
232,4d6f69e350096a31f64d2e16,MH Apartments Family,41.407340346513976,2.1761395497826475,Bar
233,55b3dbc1498e09d93618b942,Estyle,41.40710430322591,2.1782004833221436,Residential Building (Apartment / Condo)
234,4d39cd280333a093b7784e34,La Caixa,41.40856747771017,2.1779042014417764,Other Nightlife
235,54c0eaf6498e8105a7096282,Akkra,41.40739099,2.178427187,Beer Bar
236,4c6f92b9344437048385215f,la Sirena,41.40717744867053,2.177172633952898,Café
237,4e5f9f74d4c0007344a70de9,Carrer Dega,41.408415846876736,2.1778418111583133,Supermarket
238,4f427c52e4b0e5bc1490f184,Curves Sagrada Familia,41.40808333958725,2.17688677068481,Bar
239,512c945ee4b0f44a82dad456,Castillejos,41.40742575490065,2.1769923520528915,Bakery
240,4cffa19641322d4365c520c1,Pizzeria-Trattoria Vilaret,41.40705694695612,2.178193589861621,Health & Beauty Service
241,542054e1498ebde7084d1bd4,El Graner,41.40680382683445,2.1772611057432374,Nail Salon
242,4be7a4209a54a5936c1c0911,Mupresca,41.408049,2.176982,Shopping Mall
243,5b4759b665211f002bc43ffb,Seven 11 Super Mercat,41.407778,2.178716,Office
244,52e24ce811d2f8cd8861188c,Bankia,41.407554930240686,2.176365852355957,Department Store
245,4dd8fcde1f6ee1468348a262,Jardins de Montserrat Roig,41.408559685832785,2.178785746184781,Furniture / Home Store
246,4fb3e94be4b06a2cd00dd1c7,Para Envolver,41.4073754103715,2.175984539999546,Doctor's Office
247,59f747c135d3fc2f62940ad0,COPLEFC,41.406617,2.177418,Café
248,4df77d8762845f605bb70c3a,Planeta Magic,41.40839094822117,2.176042128652099,Residential Building (Apartment / Condo)
249,597b705881635b3c49e6c781,Myosotis,41.40664763783942,2.1779966354370117,Café
250,4e1f7a16d22d0a3f59e3f9c1,Bodega Machin,41.408164455306654,2.17814896415775,Nail Salon
251,515a2c2be4b03f6bd119afbd,Sagrada Familia Design,41.407182,2.178021,Salon / Barbershop
252,4c7a8fc3df08a1cdd70fde5d,eilex palace,41.40867074043826,2.176659840193644,Furniture / Home Store
253,4dc6efd9887717c88048e2c0,Pivo Bar,41.40734062127628,2.178101724530279,Café
254,4d339d728c42a1cd4ecdf35d,Kampen,41.40854420612587,2.1776789925394775,Hardware Store
255,4d38046f147360fc23d24d72,Dia,41.407963845363966,2.1784801158320595,Parking
256,5a7471cd9411f2327b3a3a76,Luichi’s Bar Cafetería,41.407739,2.176979,Bank
257,50f4ff1fe4b01ffa8858a457,"Forn de Pa ""artesà""",41.407840728759766,2.176677703857422,Miscellaneous Shop
258,56aa285e498ed4219660402d,MARIABE,41.408512,2.1777983,Thrift / Vintage Store
259,4fd0a64ee4b04552ed4ac982,Roccopelo,41.407798767089844,2.1772208213806152,Health & Beauty Service
260,51beb8f7498ecc9226857651,Eroski Sagrada,41.40666,2.177255,Arepa Restaurant
261,4d7de2f48700370407296699,Balsells Zaragoza Gestió,41.408198,2.176768,Food & Drink Shop
262,523968f5498e5bc4591e3bb5,Caprabo Provenza,41.40688521134035,2.177093134498807,Grocery Store
263,4f47cefde4b08f45dc138b57,La Provença,41.40855842552546,2.1775394594705713,Pharmacy
264,577257f2498e66eef3caaf28,GIREXX,41.408322,2.178024,Medical Center
265,4d483fc64c9ef04d2be06815,La Granja Del Barri,41.40753710218587,2.1785521056486865,Building
266,4e1c96c9ae605fbe03861d76,Casita!,41.40663745,2.1768495999999997,Building
267,4da42e539aa4721eaab4311a,Bar la cabaña,41.40703992768293,2.177760601043701,Food & Drink Shop
268,53848263498e77bc15fffcde,No+Vello,41.408633203624845,2.1779000759124756,Salon / Barbershop
269,51a623fb498e424d42cd435b,Scissors&art,41.407228746348345,2.176253287674941,Coworking Space
270,531763fc498e8a08fa28b80a,tengo idea,41.40829849243164,2.1763784885406494,Hardware Store
271,4c9e2c088afca0934c06fe15,Portofino,41.408698252472426,2.1801244418654897,Yoga Studio
272,4f61b0cde4b04b82c8d4f15c,Bodebric,41.40770432,2.17616946,Housing Development
273,571e47be498e21ffe09d27fd,Garatge M,41.408238,2.177034,Latin American Restaurant
274,4e4a29d6b61c68864856dd0f,Catalunyacaixa,41.408134,2.176973,Residential Building (Apartment / Condo)
275,4b754f4ef964a520a2052ee3,Bar Margem,41.408564850679596,2.1782353513162933,Outdoor Event Space
276,4e2e7d097d8bf59d290cda3c,Smeg Service,41.407234,2.175989,College Rec Center
277,50705947e4b07504259e506d,Mer-K-2,41.407724,2.178764,Spa
278,56128533498e55bb55cda415,Elegancia Y EStilo,41.40677268530356,2.1777890194475096,Salon / Barbershop
279,5298fd5e11d2527452473efb,el arepazo restaurante Colombiano,41.408504486083984,2.178652048110962,Coworking Space
280,52c87147498eab14722b6b2f,503B Carrer Provença,41.407165,2.17799,Mediterranean Restaurant
281,4f5a8250e4b0695cb950e8ea,Mercat Accessible,41.408005,2.176772,Miscellaneous Shop
282,528219d311d2cca1ca5a5620,consum basic,41.408716845278384,2.1776930346773278,Design Studio
283,4f638c14e4b041039cd8a481,Farmactiva,41.4076773,2.1780271,Nail Salon
284,50ad36b3e4b0fcc4d78d6389,L'espai del Cos,41.40829100595689,2.1764260548847094,Pizza Place
285,4f97df43e4b0e34f3e03d166,Prodecor,41.40745,2.176057,Assisted Living
286,4d6b7a5d4395a1cda39da773,Fraternidad,41.40885788298711,2.177990588130807,Convenience Store
287,578924cd498e99df080fd178,A Mà - Espai Gastronòmic,41.40736,2.1772828,Salon / Barbershop
288,552d89b4498ea54018f8654d,Tony Perruquers,41.406912,2.17713,Tech Startup
289,50eff127e4b0d6592f7917d5,Panaworld,41.40803500308383,2.177558656342774,Bakery
290,4ed115f25c5c9528fa0cd346,Ferretería Pablos,41.40719753395708,2.1776354439134193,Clothing Store
291,54ed000b498e6bc7084bbda1,NaLúa,41.40690464653518,2.1771548900163835,Bike Shop
292,4e00cafe7d8beaa1649d9a65,Tallers Almar,41.408264,2.178329,Beach
293,4e098d86d4c03ae0b9d735d4,Ad Marina,41.408417,2.177595,Restaurant
294,54d1b682498e816626ff0006,Casa De La Mina,41.40782732818737,2.176387662114142,Hotel
295,4e31a8c881dc2b854ab4b5bb,Restaurante k'tamaran,41.40868148410406,2.1775031089782715,Beach Bar
296,58446ab8ebf0284fe7716a7f,Nino's place,41.407335,2.175974,Italian Restaurant
297,57e7b77c498eddfb9265fc7a,la xarranca,41.408579,2.178633,Tech Startup
298,4fdc401be4b01dfebf56f339,Ca'la Carol,41.4077586185831,2.1787344803658306,Travel Lounge
299,4f3be4a80cd6979591de0546,Atenea,41.407377898571916,2.1786797048844164,Mediterranean Restaurant
300,4f60f2544fc6f460d33c27cd,Maribé Unisex Peluqueria,41.40835961356492,2.177889347076416,Cafeteria
301,5239d84611d2c0c9bf5c1ac1,Centre de terapia breu barcelona,41.4068700038223,2.177640243140932,Building
302,4e831e6ab634192147ff4540,Cal Felix&Ana,41.407011,2.177885,Building
303,50ec64ebe4b0348f594c4a20,YUN HUI,41.40746449237871,2.176618019228566,Restaurant
304,4fd9e64ce4b035bc35936ab8,DEHARO diseño,41.40814208984375,2.17625093460083,Beach
305,51d2b5e7498ec56e99cfe110,peluqueria stylro,41.4085578918457,2.177016019821167,Hotel Bar
306,4cba205143ec6dcb2b43a231,Can Alcón,41.406991,2.176539,Convention Center
307,5431dad6498e0f6206f1fd43,Sweetroom B&B,41.407286,2.175889,Rental Car Location
308,5116137be4b02a68cf38ff95,Пятачок,41.40772673935822,2.1754998384260316,Office
309,50cb616be4b0cbbcc8b62497,coral peluqueria,41.40750503540039,2.176090955734253,Science Museum
310,4dddfdf1e4cd191273768556,Dinaptica - Infolan,41.40877962112427,2.178313136100769,Hotel Pool
311,535b5cb6498ebcf553084c1c,Artesans del pa,41.40667724609375,2.1774380207061768,Housing Development
312,4dcc1d59d22d7ffe9d3dbe80,Humana,41.40665970452012,2.1773234952221747,Convention Center
313,504639f7e4b02712ccabe6e5,Bicis Tirli,41.408386968208205,2.178076974985548,Athletics & Sports
314,4f7d73b66d86fe2cd8c4e405,SIXT Alquiler De Coches | Barcelona Diagonal Mar,41.40903,2.21734,Skate Park
315,4c72f81e376da09321e2a7c6,Illa del Llac,41.407863147893806,2.216427716155366,Coffee Shop
316,522b9ce211d20747f42c6ebb,Lobby Bar Hilton Diagonal Mar,41.40871018668167,2.217528479709034,Gym / Fitness Center
317,4e5fdca7fa7631dc4098da12,La Tagliatella,41.40866242753302,2.216941758632971,Food
318,4c14e39ba9c220a1bb2b589d,Pappa Pomodoro,41.408958684002016,2.2155734886128258,Office
319,5337f039498e2dedbc897cb7,Crazycorp,41.4163110872554,2.1772105553091685,Dentist's Office
320,50cc5b10e4b0de30571ec902,Kaina,41.415479322098705,2.177150724569172,Advertising Agency
321,4ee7111bd3e34ebcf244ff23,Bar Restaurante Les Nines,41.415923991493756,2.1774361690356705,Coworking Space
322,51b3309a498e0fed5bb16f19,Fruiteria Sabo,41.416002674666174,2.1767715912928707,Hot Dog Joint
323,4cb35805cbab236a9b39b773,Bar Tantra,41.416144,2.17707725,Swiss Restaurant
324,4e92acd96c25b073b7cc8144,Via Claret,41.415312863045855,2.177189117990333,Bike Shop
325,4ebc06796da1686824d00c8d,Va de Bàrum,41.41539568584069,2.175585428382877,Grocery Store
326,4f3a2147e4b0a4d4435732f7,SPS - Sindicat Profesional De Seguretat Privada,41.41595904714272,2.177534660253799,Tapas Restaurant
327,4e9ffa8a0aaf0953317128ee,Can Marcel,41.41519221022454,2.1768099843907827,University
328,51c5c24b498ea9954a3cdb94,Carrer De Sant Quinti,41.413617,2.177705,Bank
329,4ef5d30c5c5c68fa0a0f946f,Bazar Europa,41.41591712930873,2.178633694246643,Grocery Store
330,4adcda4df964a520e33f21e3,Hotel Amrey Sant Pau,41.41392666826835,2.1775507682767854,Peruvian Restaurant
331,50f00408e4b008bcf67552f1,Cafeteria Les Nines,41.41544474561984,2.1765412333928196,Cupcake Shop
332,580e5c6538fa4d66553ed62e,Blended Headquarters,41.41628722319582,2.1778759360313416,Restaurant
333,4f1aad03e4b05c50e1c3d460,La Llauneta del Guinardó,41.41645458641004,2.1760543864050295,Building
334,5b9e555a071902002536eedd,La Ginesta,41.41542,2.1756098,Bakery
335,5c30916ebd4009002ce5193f,Free & Sweet,41.415097,2.178578,Spanish Restaurant
336,4f57721ae4b01344f834bca0,La Caixa,41.41606394482475,2.1768195826703756,Tapas Restaurant
337,4eebc27b0e61a4186330ae9c,Imagine,41.41480407672709,2.1763156757575577,Restaurant
338,4ea04d3ae5fa13c70e735933,Punto Idea Lavanderia Autoservicio,41.415305,2.178327,Grocery Store
339,506e951fe4b0a9ca4c250149,Banc Sabadell,41.41686217247606,2.1788880596478197,Automotive Shop
340,4d88c731bc848cfa3b15b42b,Miquetes Màgiques,41.414962753178365,2.177625845459928,Café
341,4def2a7cae609ae4fa41eed5,Urgències Sant Pau (Urgencias San Pablo),41.41526531405983,2.175637025900924,Café
342,4f17d428e4b08e7baf418a3e,Seguros Quesada,41.41560085013961,2.1754129820661467,Café
343,52f80d4f11d26529e810c53c,Clínica GS Dental Barcelona,41.414414535907554,2.178565263748169,Coffee Shop
344,56431d8f38fa12a922628197,Nicoseosem.com,41.4152287401625,2.1790327227731194,Falafel Restaurant
345,4f818e77e4b0fdf5026343bb,Villa Tetas,41.41519546795728,2.177366687988997,Other Great Outdoors
346,4ed69426d3e36f47eb0f0501,Frankfurt Sant Quintí,41.41551587061452,2.175115920090814,Burger Joint
347,4d71674850a9a14344ff3e27,Restaurant Basilea,41.41503690736926,2.1793564797168212,Event Space
348,507c1f14e4b08ed6490f3853,Bicing 280,41.41399383544922,2.1768367290496826,Café
349,4d507179abb459414987ba18,Condis,41.41591903875266,2.1792921676955475,Café
350,5138ef94fe7071e3c367033e,Xarcuteria Delicatessen Garciz - Rambla Volart,41.41597142472035,2.1788978576660156,Café
351,50b4a610e4b09892782b5bdb,Centre d'Estudis Cinematografics de Catalunya (CECC),41.415510354445985,2.1759701428479166,Internet Cafe
352,4d9aee785e52224b2c9436e3,Banco Sabadell,41.416051815459916,2.1782017562905023,Bus Line
353,4eb8331ab634a0486151d61f,Dia,41.41520170916176,2.178297742144965,Historic Site
354,4f818385e4b06fa5174902c2,Bar-Celona,41.415551,2.177887,Design Studio
355,4d77513ba32ca1cd3beb18db,Pastisseria Castell de Sant Medir,41.41513878185738,2.179569574029926,Building
356,597c796d0531e85a6d6ac046,Invers,41.414849,2.177537,Bakery
357,4e6a7bf745ddadf2d07e9c46,"Rambla Volart, 44",41.41664450372262,2.177213113895181,Yoga Studio
358,584bdb386ad73d598efde367,Paníssim,41.415874,2.179529,Laundry Service
359,4e5ce9e7e4cdc5938595f89c,Bar Restaurante J. Esplugas,41.41582659942825,2.1750998497009277,Grocery Store
360,5dfb7b2b6665ae0008f8b081,La Bodegueta,41.414133,2.177141,Hot Dog Joint
361,5d396e2f07c75f0007d3fa98,El Petit Trencadís,41.415813,2.1753538,Flower Shop
362,59abfd486f0aa256da39bbd6,Eroski,41.415133,2.175415,Dentist's Office
363,4dc92a601f6e936efe532f48,Autoradio America,41.4164,2.176832,Building
364,4d1dbfb4c03c5941357846cc,Just Cafe,41.415747,2.178646,Breakfast Spot
365,5a02c7ee6cf01a72ad100275,Café Flaugier,41.416057,2.176198,Grocery Store
366,517f6967498e41a8fc198ca1,Bar Guinardo,41.41635513305664,2.1756129264831543,Music Store
367,4c6cd04346353704428d07bc,Caffè Fiorino,41.41580706809023,2.175029951340548,College & University
368,566d9667498e2eba7c682b32,Mesopotamia,41.41548066599441,2.175427853488824,Arepa Restaurant
369,51c608c3498e06f51d96dc4c,Calle América,41.41534299613135,2.1788448654218264,Paella Restaurant
370,5b2bad4522d490002c968e25,frankfurt sant pau,41.415893,2.17498,Coworking Space
371,537a0486498eadf12fb57d62,bcnestudio,41.41684090813753,2.1757637841804165,Cosmetics Shop
372,551bdd21498e496f8a599358,Bar Alegre,41.415323,2.176405,Diner
373,4d0b2a786aa05481d269e8aa,El Niu Cafeteria,41.41587933910446,2.1749353052138996,Flower Shop
374,4c52f1902543a59388392886,El Petit Cafe,41.41475086666666,2.1789606666666663,Building
375,4faa436de4b0f00008d8207a,Locutorio Trobador,41.41568659952212,2.1783601330600715,Office
376,4d91d912939e5481187ad59e,TMB Navas de Tolsa-Clot Bus192,41.41486655885231,2.1771603229213934,Automotive Shop
377,4d18bf7f2d8c60fc7b0e05c7,Búnkers del Carmel,41.419227577082644,2.1616922996973793,Gas Station
378,51dbda18498e7a0bb07c9c13,Imprenta Plastic,41.41533449955532,2.1771411262189964,School
379,5891aaa30162170b42c6f9be,Body Mechanics,41.415066,2.17758,Office
380,4f37b59fe4b0aa62a275273b,Mon Pa,41.415586911802976,2.1799007361498184,Farmers Market
381,5978e78b3d479124fa47359b,Adhara Yoga,41.414692,2.178145,Dentist's Office
382,4d5a258456f2b60c4fcd802f,Punto Idea,41.41561881,2.17809793,Cosmetics Shop
383,4f37b787e4b0fc67a97fb1c8,Rico Alimentacio Supermercat,41.4153850050364,2.175595818521331,Breakfast Spot
384,505c3e1ee4b02c96b3412bec,Frankfurt 45º,41.41545242855425,2.1765172378460016,Bookstore
385,4cadf6d58c48a093b281702c,Floristeria Ros,41.4145553413402,2.178661823272705,Gourmet Shop
386,4f0ecf65e4b07eb23763ffab,J.Sole,41.41496021981666,2.177707432379813,Building
387,51821c6d498e6bbc0913ad7f,Any 10,41.415532,2.177622,Farmers Market
388,4e5bf9a188775cde7b3eaf3d,Bar Xiprer,41.4160409401845,2.1794111930072315,Automotive Shop
389,51dff6bd498e1fc4249511c5,Josep Maria Fruites i Verdures,41.416309349146104,2.178061008453369,Radio Station
390,5bcdeeeaf0b490002c99c19c,Amptek,41.416794,2.179071,Spanish Restaurant
391,509028617e27d69d8b2567d1,Tesis,41.4172698,2.1774714,Temple
392,4cb9b3b4dd41a35de237e3a0,El Rincón De La Brasa,41.41533495212385,2.1783409358462174,Bed & Breakfast
393,54031600498e0d4111eb1600,trobador,41.415023,2.177602,College Residence Hall
394,4e0c49f114954f127e65005c,Idx Informatica,41.41528734131394,2.177097933668524,Coworking Space
395,4ccb0e58aa25a35d15910b0f,Blau,41.417197,2.17801,Office
396,4e836f1549012cbcd6814e5e,Café Express,41.416842,2.178272,Park
397,522e0a7011d25d87b5e02011,Vitamina Natura,41.41521302864741,2.177179519631974,Hotel Pool
398,54330f8d498e9f625c5e050a,Cal Murritus,41.415247295030724,2.1760225296020503,Convention Center
399,516d5c9a498e0b5baf338964,"BJM COMERCOM2006, S.L.",41.41653995528653,2.1780913728107825,Snack Place
400,4fb229dfe4b0e2be9a37be81,Taller R. Puig,41.41561253025838,2.1765940236408294,Concert Hall
401,4ed922f777c8274efb96774b,VAS Motors,41.416157896190626,2.1786528915852896,Science Museum
402,4f3bde11e4b026d3576fb5c4,MRK Method,41.4160059304175,2.1763444702863817,Science Museum
403,4f51fb44e4b0776d6412695a,Experiencia Coaching,41.41645570927507,2.175703928455247,Playground
404,5164f672e4b01054c3aba9ba,Fruiteria Josep M,41.41658638960453,2.1782209534450283,Tram Station
405,51825ead498ec71e85ac35c5,Sole Luna Medicdent,41.4164924621582,2.1780614852905273,EV Charging Station
406,4f83f906e4b0f13eb5089046,Schlecker,41.41605977561342,2.1789312539152395,Parking
407,4be920f3d837c9b61f11a606,La Pomba,41.41554543890315,2.175382784795568,Building
408,519652a6498e67c29f2d5d67,Cooperativa Cultural Rocaguinarda,41.41713679323912,2.178412925440365,Medical Center
409,4ec3fe359a524f6c479b5fcc,Xarcuteria Claret,41.41552981489919,2.179401594175271,Recycling Facility
410,5146da26e4b0ab7c9f3e003b,evia,41.4167,2.1781,Residential Building (Apartment / Condo)
411,52270d5c11d2420e04ca1ee3,Fruita I Verdures Trobador,41.41528932098804,2.176378063926615,Office
412,4e36869c62e17d29083e84ad,Neumaticos Gonzalez,41.416615,2.176173,Diner
413,5163dcf7e4b095f6f157b8b2,B07AA/B00,41.416365,2.176021,Street Food Gathering
414,4e42f8db22710a4e95b605d4,El Racó De Sant Pau,41.415496959819365,2.175463342719013,Mediterranean Restaurant
415,4dc42c5bc65b89d3ca4db564,Chetto's Mansion,41.414636,2.178307,Recreation Center
416,4f4e7ed4e4b0774b57a9742d,America 32,41.416263,2.177172,Coworking Space
417,4e6b6671d22d0e4cf67462d7,El nidito.,41.41533558571099,2.1771651220982715,General Travel
418,4fa39520e4b08e1f876d43d0,institut metropolita,41.41744613647461,2.17661452293396,Hotel
419,4b953e73f964a520769734e3,Tram T4 Fòrum,41.411804418823635,2.219789992263524,College Academic Building
420,4d393eab9ca8236af3bcb2e8,Diagonal ZeroZero (edificio Telefonica),41.411677,2.220149,Residential Building (Apartment / Condo)
421,509aae9de4b04fdbf4a060f0,Estanco Exp 59,41.411960025021244,2.2196626641523,Gift Shop
422,5121f3bdfe705fca825b61f1,Wayra Barcelona,41.41204025139776,2.2204682863001155,Bar
423,541fb79d498edf1964fb6af7,Gym | Hotel SB Diagonal Zero Barcelona,41.411843,2.219658,Gym
424,55a816ac498e7472cd548b44,Hotel Barcelona Princess bar,41.41090782075641,2.2190670091442826,Hotel
425,4e9fe7279a5229904c87daa3,Evento Virtual Data Center,41.412171,2.220551,Restaurant
426,50f5a8cbe4b0818391eed0bc,bicing 160,41.4109196162475,2.219297584344747,Hospital
427,5387f1b8498e1afc16330bfe,Primavera Shuttle Bus,41.41056,2.218869,Electronics Store
428,4f44d240e4b0b7292edd7bfa,TMB 2689 Bus 41 N7,41.41033407407525,2.2186923269535526,Pizza Place
429,4da9b7845da3ba8a4778485f,Bolera diagonal mar,41.410305208619214,2.218416175692135,Bistro
430,518b57b2498eeac1acda64ab,Bbva - 1413,41.41113846483029,2.2196818789607384,Hotel
431,50422ea5e4b08d95c1cae02e,Mosako,41.412016,2.220125,Bakery
432,537a1157498e5219d0f01bfa,TELEFONICA PYMES Barcelona,41.41213153255793,2.2206570412206115,Roof Deck
433,5151aba3e4b050aa07a3462a,Cloudia Store Diagonal Mar,41.411766167075456,2.2195761976154613,Café
434,52b046ed498e53df3aed6e04,Infantium (Wayra),41.41207504272461,2.220599412918091,Gym / Fitness Center
435,4dc3e09bb0fb5556ccc7e2be,Cantonada,41.41268469400664,2.2207387060103194,Ice Cream Shop
436,4d9616e761a3a1cdce619342,Casa De Cuenca,41.4144350293623,2.185404263155377,Café
437,4f738991e4b03693d470a713,Talleres Airos,41.411916194480064,2.1851634979248047,Café
438,4c54817d30f92d7ff0c398ba,Pizza Luna,41.41145872732675,2.1850278618197545,Coworking Space
439,51224bbee4b027f38711f128,Clinica Ignasi Gomez,41.41066406386499,2.187397039058945,Veterinarian
440,4cd5c7b5a5b3468862269050,Bar Ruipe,41.4129340210374,2.185002474307599,Pool
441,5002e7ade4b0c432cf3f3268,Bar Sauce,41.41151050140259,2.18551166443436,Chinese Restaurant
442,4adcda4cf964a520ae3f21e3,Hotel Catalonia Atenas,41.410948822766436,2.1867668632819055,Middle Eastern Restaurant
443,4bb19dd4f964a520219c3ce3,Estació ITV,41.41135178323713,2.1848157027264974,Dentist's Office
444,5683e4cd498e4abb4b681999,Alegria Spa by Catalonia,41.410979,2.186863,Dentist's Office
445,5e35d314b0791c000881598f,Monsieur Bistró,41.412968,2.184656,Paper / Office Supplies Store
446,4e4bfa1314958c3abfaea733,Dia Market,41.41105090441933,2.185581235110501,Non-Profit
447,4ec8aaabcc21b428e47fac76,Dovella,41.410954565552316,2.1857036675017083,Residential Building (Apartment / Condo)
448,513b8361e4b02357df3f1f1e,Estanc Martinenc,41.412101363744924,2.1856124659427074,Playground
449,5dd564a77a06b50008e2c52c,La Vianda Del Clot,41.411545,2.1860077,Japanese Restaurant
450,517d343e498e4a3bd40d0142,KWL-AQUA Bugaderies Autoservei,41.4108,2.1854,Residential Building (Apartment / Condo)
451,4e838144d3e3c0c16a565e34,Plaça del Doctor Serrat,41.41142858979669,2.186428486454527,Clothing Store
452,4c2daf1f260bc9289d621ad3,Forn Colón,41.41060798772909,2.185011246582506,Fish Market
453,5221f31e11d2264c14fb7c58,Condis life,41.41384008925285,2.1847820602398333,Peruvian Restaurant
454,55ee95a3498e8e6f0b12703f,Leonardo Boutique Hotel Barcelona,41.41104633625311,2.185655499578394,American Restaurant
455,4e6676d3483bef6eb78c055b,Braseria Suyapa,41.41167106649779,2.1859350089670406,Breakfast Spot
456,4bc4610e2a89ef3bdc29f688,Fremap,41.41210027894588,2.1860217835636186,Restaurant
457,56b87b0a498e57060e734c4a,Centre Mèdic El Clot,41.41320912522946,2.1857084675888747,Hotel
458,5be039442619ee002cb09c72,La Cuina De La Carme,41.412514,2.1858468,Electronics Store
459,50770641e4b0abe31a6423b9,bonÀrea,41.41100081172438,2.1856508665766303,Bar
460,513c5ec1067dbbc37255b06c,Forn de pa MINI,41.410894300894306,2.1854960918426514,Winery
461,50146dc3e4b0354629ac8547,Catalonia Atenas Pool,41.41097474273851,2.1866012926941836,Toy / Game Store
462,4def45b0fa76c1ceac8dc428,Cafès Caracas,41.41240663065304,2.1866367909225737,Assisted Living
463,54047401498ebbf2f0205b9b,Crossfit Gala,41.411761044127616,2.1837980732941387,Liquor Store
464,4e0c97721f6e9300e4e7bca6,Orxateria Gelateria Neva,41.41226,2.184156,Breakfast Spot
465,4d2c315e915fa093002b1d0a,Granja Catalana,41.410818,2.186017,Road
466,577681a8498e5c228731de42,Zwembadje opt 11e,41.410969,2.18647,Credit Union
467,5d4469decaedea0008e7e81e,Dolç Cafe,41.412617,2.18673,Sandwich Place
468,4c17c20b834e2d7fd6d92780,Casimusica Digital Marketing,41.41214149169061,2.184584140777588,Arts & Crafts Store
469,51822b31498ef1486bd47384,Veterinari L'Arc de Meridiana,41.412043442752065,2.1866060928769664,School
470,5b630b73c9f907002c6ad7e7,rooftop swimming pool  hotel catalonia atenas,41.410732,2.186538,Breakfast Spot
471,54da802c498eb05394188449,XiKou,41.410540394268,2.185958072826115,Salon / Barbershop
472,4f133819e4b0fd29503a0ca0,Muntanya Doner Kebab,41.412383372695444,2.1838305818753363,Salon / Barbershop
473,4cb964ee43ec6dcb5de09c31,Clínica Dental Adeslas,41.411976,2.187277,Furniture / Home Store
474,5580445c498e293e1a4f3e67,Dr. Jordi Paris Cenzano,41.412345,2.187023,Convenience Store
475,4d88f0415ecdf04dd0dc9f8a,Papereria Germans Lluch,41.411893,2.1847,Paper / Office Supplies Store
476,517142b7e4b06f2652e5228b,Solar parking meridiana,41.41156244768277,2.18361087821067,Grocery Store
477,5145df80e4b0238f34ee9276,Dega bahi,41.411623056461245,2.184282864176886,Winery
478,4d284860068e8cfa31bdc34c,Plaça de Carmen Monturiol,41.41306526797862,2.1851420608330128,Boutique
479,57756a53cd1076abff9b5f21,Akira's,41.412857,2.1856306,Bar
480,4dce729c52b1f8915b95ed15,Zurial,41.41199035503016,2.1849695346196496,Hardware Store
481,4bc97565b6c49c745b858e91,Lefties,41.38576422075308,2.1648421170357324,Medical Supply Store
482,536a68b5498e7dc602af295b,Peixos Ricard,41.41082188262869,2.1848416328430176,Building
483,538c6dea498ed108271c7fc0,tk restaurante,41.41185963860717,2.1867788997976936,Electronics Store
484,4dc5b560d164eb9c9ff6e398,Bar Papa Nico,41.412578,2.18628,Salon / Barbershop
485,5444e6e7498e45bb96c68aed,Glow Bar,41.410815644001715,2.185103660632701,Coworking Space
486,5b40bcd7c8b2fb002c02131a,La Fusió Dels Sentits,41.41259,2.1836622,Coworking Space
487,562d290e498e1e1dac90c501,Mellow Apartments,41.41112679330435,2.185967673055159,Mediterranean Restaurant
488,577a9b03cd10018584e8806e,Expert,41.410639,2.184969,Casino
489,5af48731e7a237002c68f439,bar vicenç,41.412476,2.187062,School
490,513e3341e4b0b7ab7b4552c1,Celler duran,41.41263116753379,2.186802900811315,Art Gallery
491,4e3e6bab2271d21e8703287d,Joguines Tear-Disbauxa,41.41099085845625,2.185356616973877,Cocktail Bar
492,4d7b87005a396dcb5edc60fb,Residencia Marvi Park,41.4117734,2.1862736,Salon / Barbershop
493,555db9d0498e975fd0f6fa31,vinalium sequia,41.41191726211416,2.1865580910721443,Optical Shop
494,5177a945e4b0620faf26cc7a,Bigben forn,41.41186027564714,2.184498861794539,General Travel
495,5183ed9e498e0f1664bab560,Carrer de Mallorca,41.41053986782755,2.184378862990228,Tech Startup
496,51750b03e4b08eae8ea49d41,Loterias meridiana,41.41093,2.18497,Candy Store
497,4c5c64ea9b28d13a13ad5670,La Bocatería,41.410877,2.182619,Office
498,52a2480e498e4cb7051940f6,Totem,41.41108538334021,2.1853148621393945,Snack Place
499,4e64e159b993678bb79cebac,Escola Mare De Deu De Nuria,41.410649951560835,2.1851400039517137,Building
500,51b32a45498e7341382dfa5d,Snack Bar - Meridiana,41.41113803006553,2.186922906071165,Liquor Store
501,4fb24e7ce4b0f1afb4fe1907,Arte e Estetica,41.41213981787918,2.186937306723822,Bank
502,5714f72b498e01f63f9654d7,Chic Perruqueria i Estética,41.412159,2.186978,Office
503,4ff8081ee4b0f083053ea6c5,Ferrolan,41.41257358005855,2.1870045098304,Coffee Shop
504,52801c99498e7b9ac5b0f6a8,Alimentacio muntanya,41.41052158826947,2.1856604667402246,Circus
505,4f8c5267e4b0ddfd84e889b3,Digicopy,41.41103109073135,2.1857857704162598,Convention Center
506,4c67cc7fe75ac928d158fbda,Supermercat Anahit USSR,41.41087625202353,2.185530864704279,Skate Park
507,51d169c7498ea16103f43e3d,Bodegueta rogent,41.41156751737965,2.1836012784837653,Park
508,5829f99e7d93993366d2d832,Botiga amiga,41.410526,2.1854856,Convention Center
509,4d85223961676dcba43e83e4,Bar Saus,41.411372,2.1855,Athletics & Sports
510,4e4d8ec8b0fb84443d4423eb,Instal•lacions MURANO,41.41230644093859,2.1841388940811157,Hotel
511,4e8c13dfa17ca3b53132e3b0,Gaes,41.41045710783332,2.185720682318788,Restaurant
512,4b6aeb0af964a520d4e62be3,Prova,41.411175,2.186523,Travel Lounge
513,4f192f68e4b099f9dc4de68f,Edifici Finca Regia,41.41277247639851,2.184244464708821,Tech Startup
514,513b1d72e4b090bbab5bd185,Sefi Electronica,41.410772268087435,2.185329262278173,Science Museum
515,508260dde4b08a31a7ed826f,Peluqueria Mana,41.41224878345455,2.18608767609078,Office
516,4ea1a1f0e5facb29c6e967fc,Autoescoles Gala,41.411832392337644,2.186961307821809,Snack Place
517,4e2d9310fa76bbf847eedb82,Social Biz Solutions,41.411259,2.18501,Residential Building (Apartment / Condo)
518,4dcfc09cb0fb25f6e3645525,El Rei Del Pollo,41.4123834324951,2.184138866340388,Office
519,4e51912bc65bb313baa430d0,Administración del Lotería n°130 Meridiana,41.41217367694263,2.1866440773010254,Plaza
520,514f3363e4b08d2820e3c451,Escolapies Calassanç,41.413458085785514,2.185209261262304,Convention Center
521,516948c4e4b044abfbc513a6,57 Serigrafia,41.411564179726334,2.18610207647653,Music Venue
522,52bf6e81498e1393e3fe2d3b,Bar Diana,41.412616,2.184791,Athletics & Sports
523,5166e488e4b062ad6b4fcefe,Peluqueria Babar,41.411692,2.185713,Historic Site
524,4fef4581e4b0430e0b094537,Òptiques Tutusaus,41.411048889160156,2.1856110095977783,Event Space
525,56e307ab498efa4a867ddb59,Formiga Tours,41.411364,2.185877,Science Museum
526,570358c4498e0c931abc1095,My Cultural City,41.413028,2.18507,Other Event
527,52ac3cf011d2d7218d6237ab,Tutti Fruti,41.410743713378906,2.185518503189087,Building
528,4f100564e4b0725feaaa7c5b,Covance Clinical and Periapproval Services SA,41.412858024502384,2.1841244665820496,Building
529,51b62ff6498eba88f2a8680d,Rosso Cafè Bar,41.412954,2.184772,Office
530,4d6be65c8e10224b0f494eb6,Espai Antoni Miró Peris,41.41277691030312,2.1846572607055905,Beer Garden
531,4e78d27db993adb6be227932,Panvi,41.4114755,2.1842606,Cafeteria
532,4d79f9b0f87b236a6b9d381f,CajaSol,41.41144384398842,2.1868605032961606,Bar
533,4c371464298e9c748de507e3,Segra & Tritusan,41.41277897485886,2.185055041166205,Tech Startup
534,5119024be4b0f9aeb2eef079,On!,41.41132495471731,2.1858860711734796,Hotel Bar
535,580bf76f38fa180e1fd3aa1d,The Suite Bar,41.411061,2.219416,Café
536,57ac1c4638fa8f9b5d5c7718,"Treball, Afers Socials i Famílies",41.408922,2.21767,Road
537,57b8899a498e4fd6c26dad5c,AC Hotel pool bar,41.409543,2.2181,Gym / Fitness Center
538,4bbc48c6e436ef3b18605664,Di Lorenzo,41.40865030830655,2.218204040202416,Historic Site
539,510b79ece4b0ce64f38118a2,Whirlpool Iberia,41.40938476793279,2.2182888265312966,Hotel
540,51815f7d498ebefd482df710,Restaurant Barca,41.408885789532114,2.217861312159174,Church
541,50976e3de4b0e52fa4f47907,Gartner Peer Connect Lounge,41.40912383466744,2.2181927555334204,Cocktail Bar
542,59c92349c9f9075136bbf4f5,Rentalcars.com,41.407714,2.21799,Moroccan Restaurant
543,50a35291e4b09bb46d49262f,Nobel Biocare,41.4079545170727,2.2182023626240137,Winery
544,556ac1ea498e2ce126705009,Gimnasio Planta 13 AC Forum,41.410097,2.218924,Ramen Restaurant
545,4ce3b56322bef04dfcfbd4f8,Casio España,41.40786219826038,2.217741224580299,Deli / Bodega
546,4f587bc4e4b0a90e2ddee1da,Whirpool,41.407691,2.217476,Japanese Restaurant
547,4ecb74a10aaf5823e8823df2,ICON Clinical Research,41.40812377086147,2.2173233222944915,Kebab Restaurant
548,4adcda4cf964a520aa3f21e3,Hotel Catalonia Sagrada Familia ***,41.40764323343585,2.1850931960739923,Veterinarian
549,5221f61811d25a5073b5a6e4,The Catalan Sandwich,41.407904341650365,2.1855242843117058,Pet Store
550,53600dee498eaaea75592dd1,Sushi nº1,41.407753307179355,2.184964460180905,Hotel
551,5180fc8f498e208c87524a1e,Bodega Carol,41.406963360943415,2.1848280608719506,Ice Cream Shop
552,54aaedac498ee7d772391efd,Beat Clot,41.40770882074716,2.1855068643681586,Residential Building (Apartment / Condo)
553,5180f126498eb5b486aa1a20,Bar A Coruña,41.408308,2.185212,Café
554,595bbc62f79faa6187576062,Bar 1978,41.40872,2.1859417,Residential Building (Apartment / Condo)
555,4e36d14118a82fdd6584adf6,Frankfurt Rogent,41.409047609903766,2.1853995323181152,Bakery
556,4b968f07f964a52092d434e3,Poliesportiu Municipal Vintró,41.406827797650855,2.185998686697972,Coffee Shop
557,5cc303511c0b34002c387e94,Tienda Yoigo,41.408559,2.186419,Bar
558,4e70b2dab3ad44d0b7433069,He Cheng,41.40793550198195,2.1845040420921884,Hostel
559,4ef0965de5fa467841fe3ad0,Propdental,41.40736507907974,2.1841244665820496,Smoke Shop
560,577eb9e3498e585130124485,Meraklís,41.407792,2.184335,Pizza Place
561,516dab12498e618c685d5766,Restaurant Al Magribia,41.408357,2.186343,Spanish Restaurant
562,4f5b463fe4b0cfc5e09efd1a,Bodega Marcel,41.4081886191924,2.1841496229171753,Salon / Barbershop
563,4eba47e02c5bdfcbf7163beb,Magma Serveis Culturals,41.407807050806724,2.186246080587135,Gourmet Shop
564,5e3af1f7b74adb0007a8dfe1,Damasquina,41.406913,2.184426,Grocery Store
565,5cfa34853fcee8002c6a5d35,Colombia Vive,41.408758,2.186278,Medical Center
566,5d890f62f516bc0008440c1c,Empanadas And Co,41.408519,2.184111,Other Repair Shop
567,4ddd4737d164236dd386f11a,Bar Restaurant WWY,41.40748678,2.18529549,Mobile Phone Shop
568,5325ca38498e1540f4398f60,bar restaurant europa,41.40878188713894,2.1851516608882045,Turkish Home Cooking Restaurant
569,5e0e3cf72df3ca00087ba9c1,Xurreria El Clot,41.408215254680705,2.1850940605877365,Tapas Restaurant
570,5d2b98db0f3dbe0023c02444,Wami Ramen,41.40698,2.1845279,Laundromat
571,5c46155689e490002caefd03,Gastronomia Italiana,41.408988,2.185408,Pool
572,4edfb940722e992a3e77b1e8,Frankfurt Miramar,41.408623691540335,2.1865004889738517,Platform
573,5d3f0272b0302b00072f8204,Bao'''S,41.407265,2.184246,Bar
574,592ee1274c954c26fd2faa74,Milestone Garage,41.407986,2.185265,Grocery Store
575,5a6a234e724750175a54289a,Beth's,41.408882,2.185677,Martial Arts Dojo
576,52ac3264498e4b28a7ae81f9,Administración Lotería Núm 73,41.407534794878536,2.184009268681026,Health Food Store
577,511a6a5de4b06b0d1146e93f,Mediterrani Bar,41.407793,2.184488,Sushi Restaurant
578,4d1ae87a1683a143d2c07851,Mon Pa,41.40884999873347,2.1855836654887413,Auto Garage
579,512e8da2e4b00b7b15d7d9c6,Blackberry Party @Opium Barcelonetta,41.40790855160122,2.1857564684886577,Miscellaneous Shop
580,4d76302c74eca093c821b8a8,L'Argentí,41.409104301437026,2.1852716617506713,Health & Beauty Service
581,52790229498e79c5cc10aa4a,Nomi Döner Kebab,41.408358879329974,2.1863564840502487,Pharmacy
582,4e5d5cd3b99302aac4245a4f,Valencia Veterinaris,41.40873227687091,2.1847100604663536,Hardware Store
583,504a2a82e4b07fabd5f09cb7,gos i gat,41.408615984659065,2.185132460779867,Restaurant
584,4adcda4cf964a520a93f21e3,Hotel Catalonia Albéniz,41.40805033264432,2.1858922498501103,Gift Shop
585,56143c3a498ecef4b87832a2,INVICTUS NUTRICION,41.408657,2.186422,Gourmet Shop
586,5079c8dae4b00277f35a17b7,Sports And Snack Bar Aragon,41.407693,2.185056,Sushi Restaurant
587,5384c7d4498efc318a8cf508,brina,41.40860666454933,2.184042868038399,Sushi Restaurant
588,58600e756431e50bfa036bee,Casa M&X&A,41.407845,2.186287,Hobby Shop
589,50447da0e4b003e2b478dc85,Cafès Caracas,41.408683542198915,2.1859138650278434,Shoe Store
590,560b96cd498ec5e1ba97cc16,Apartaments Aragó565,41.407377,2.185096,Shoe Store
591,59a1313b59fe5c0d4fc8474e,Paciencia,41.408651,2.186323,Automotive Shop
592,5a0b1e37c97f2843cfd6bc40,santagloria,41.4087,2.186316,Eastern European Restaurant
593,599dda7cc0cacb47a01e42e3,Galicia Bar,41.407968,2.183859,Coworking Space
594,4dad862d41598654208c7f65,Barcelona4Seasons Holiday Apartment Encants,41.40782750648494,2.185449263613625,Mediterranean Restaurant
595,5596af6d498e9e8ce4b7d36e,059 Zerocinconueve,41.40877151489258,2.1845762729644775,Eastern European Restaurant
596,51eae6fe498e70eec2c6f374,Va de pizza,41.40870193032031,2.186246080587135,College Academic Building
597,523a0a8e11d25bb0c7049ee4,bar catalonia,41.407627461739885,2.185156460916567,Hostel
598,4d2a1398f7a9224b2e1a04a0,Aragon /coruña,41.407907,2.185649,Thrift / Vintage Store
599,4f5501c5e4b0b5d9e02ba8fb,Easycut Perruquerias,41.40818446180343,2.183879671394443,Coffee Shop
600,505c9ddee4b0ad0a3de5c4d7,La Chinata,41.40892830313717,2.1851612609454407,Playground
601,59b95c83cf72a042175d5984,Bonàrea,41.40818,2.1837761,Salon / Barbershop
602,4c9883dc05a1b1f7b5e18d53,Fisiocat,41.408734,2.184986,Gym
603,5530abf8498e24c6e966e5f7,Lisonkite Taller de Reparación para Equipos de Kite.,41.40703992768293,2.1854370832443237,Arts & Crafts Store
604,5c428b8b894eac002bb4753d,Vodafone,41.4086565,2.18617359999996,Paper / Office Supplies Store
605,5321ad5711d2041b58d89187,Nostrum,41.40903133990072,2.1851084606559508,Automotive Shop
606,4f061e7946909da701a2c1e1,Bar Las Golondrinas,41.40804775167168,2.1863228829676236,Arts & Crafts Store
607,4d1b500031af236a3bdd1017,Wash'n Dry,41.40819489955902,2.183787,Pizza Place
608,51b84ee3498ebccca513c49c,Pool Of Hotel Catalonia Sagrada Familia,41.4075667104405,2.185041260376993,Metro Station
609,58a3e6a419b1ad69d6fb59c3,Vía 1/2,41.40833,2.186582,Train Station
610,568916a3498e71639c39b2fb,Fish,41.40884934372869,2.1854108631515095,Bus Stop
611,4f611402e4b0157287013f70,Supermercat Clic,41.40752374845416,2.184695660525464,Farmers Market
612,5107d060e4b0923d6213e54d,Wing Tsun Concepts Academy,41.41778975924125,2.1876096725463867,Train Station
613,529b7e7911d202b25519721b,Autòctons Agrobotiga Urbana,41.409225237474544,2.185194861161876,Gas Station
614,4bac8bd8f964a52066fa3ae3,"ETC, Espai de Transferència de Coneixement",41.408873,2.184974,Print Shop
615,4fbd432be4b0e5233ba266b2,Tao Tao Sushi Bar,41.40684526273315,2.184383662936264,Supermarket
616,532a17e0498eb337c99a8a17,Neumáticos Independencia,41.407193404100575,2.1848444601365804,Supermarket
617,4e4561ccfa76a07fde4af564,El Mon de la Llar,41.40888771013684,2.185761268581448,Coffee Shop
618,557be4fb498e1385055d32ed,bye bye pelos valencia,41.408465,2.184227,Laundromat
619,52ac30d511d23212278956ac,Farmacia Fabre,41.40902328491211,2.185206174850464,Mediterranean Restaurant
620,4c7f765ffb74236add13fab9,Sanitaris Aragó,41.407768209088374,2.184959660172996,Video Store
621,4e3ee2648877b00cfc5a8aa0,Pincho Que Te Pincho,41.407924,2.186203,Cultural Center
622,52a33f4711d26876d5ec600e,Opcions Todo a 100,41.408447265625,2.1864728927612305,Bar
623,4f71f9c0e4b01f4e1c61056b,Cafe Costa Rica,41.40866879850088,2.1851372608061843,College Administrative Building
624,4e283f0518384dd0a0de1356,Estética y Medicina Natural Vilella,41.408902,2.185575,Grocery Store
625,52daea99498e91496cc5a34f,vullSUSHI,41.40816826068062,2.184950060158712,Dentist's Office
626,5291176e11d2fba361b17d36,Bona Sort Sushi,41.40773709737046,2.1848780601167768,Coffee Shop
627,4e7318bba8095a7c42210fc4,Selecciones Mágicas,41.40802164280474,2.184594861068095,Peruvian Restaurant
628,4f5f17cc754ad40fb877dbe8,Shero Zapatería,41.40882632532643,2.185635566711426,Supermarket
629,4f5f183b754ad40fb877e7e1,"Comercial Emir, S.L.",41.40871367107027,2.1859145164489746,Residential Building (Apartment / Condo)
630,4c89c3801797236afa0c5c88,Sol 2 (Serv. Ofic. Honda),41.408611,2.186433,Ice Cream Shop
631,51119ab5e4b048b8ff6dfbae,Lietuvo Kultüros centras Valdasart,41.4083186279373,2.1837644741193207,Bar
632,4f2c28cee4b06f8246df6f2b,FETS,41.40742398054323,2.184801260198859,Post Office
633,4e712283b61c66581ed84f42,El Refugio,41.40890300510865,2.1859484725991165,Auto Garage
634,4f9a9e2fe4b087d95c0b342e,Nakameliwa,41.408541113377794,2.186351683894054,Bank
635,4ee638e0be7b4845a5f1b15d,Autoescola Clot,41.40763484735465,2.1866876960625103,Flower Shop
636,4f9da112e4b07e720e986bfc,Hostal Antonio Moreno,41.40856170654297,2.184648275375366,Post Office
637,4d1ae7d383c5a1cd90a5274e,Arte Mistico,41.408608,2.18396,Spanish Restaurant
638,516ae325e4b0b2ce6f885ac1,O'Vall D'Ouro 4,41.408777,2.18512,Grocery Store
639,4f42abbae4b0d395c9c84928,Zona de Jocs Infantils,41.408488361971926,2.1854424476623535,Breakfast Spot
640,5232fa2211d2ba2fbf4a590a,Miriam Giménez Estilista,41.408224,2.185193,Restaurant
641,4f50b488e4b0a3428a6a99d2,Gimnasio Esport rogent,41.408842345267544,2.185977273286248,Salon / Barbershop
642,4da03fb02305a35ddb1cc8af,Mercadillo artesanal,41.40889224826322,2.1852764617918172,Bar
643,5146fcaa29a6b7cccaf83007,Seriprint Art Gràfic,41.408536642558765,2.1862578392028804,Shoe Store
644,4e0dd2ec2fb63cdf3343e2de,"Renault Retail Group Barcelona, S.A./Glorias",41.4071379923434,2.1862220798700767,Car Wash
645,4f77355ee4b0e8caa58f9fb3,Dreams Sac,41.40876770019531,2.1859850883483887,Bus Line
646,4d77dd459ee9a35dc95db9f8,Pizza Maria Claret,41.41905940574297,2.184940460146473,Residential Building (Apartment / Condo)
647,4b88d1a3f964a520e20e32e3,METRO La Sagrera,41.42227694292232,2.187041923405316,Metro Station
648,4d621aeb1939a35d0ac034ee,RENFE La Sagrera-Meridiana,41.42174624820314,2.186903335820177,Salon / Barbershop
649,5e271667ed064c00088db01d,Parada Bus 3312,41.420168,2.186223,BBQ Joint
650,4d848c578de9721e4edd3251,Mercat De Camp de l'Arpa,41.41932621210193,2.1837644741193207,Residential Building (Apartment / Condo)
651,4d68d17fb6f46dcbd13419b2,Repsol,41.4209514348138,2.1866369224482236,Music Store
652,5a7067638a6f170e07c3f7e9,Friginal Estudio,41.418462607,2.18418094,Winery
653,4beef437e24d20a1a59d7314,Mercadona,41.42051518697845,2.1832407805373752,Non-Profit
654,5a74941fa8792112589d302f,7 Dias,41.417969,2.185207,Diner
655,55f7c553498e8f8fa64618fc,can jaume,41.42104,2.186355,Coworking Space
656,5a37b1553d47911a60b8f825,La Wash,41.418257,2.184962,Rental Car Location
657,4cf8bc6e466b6ea8bf24638b,Can Tripas,41.41915347672515,2.1865904331207275,Accessories Store
658,4e650b332271573ad8ba62ad,Fotoprix,41.41996514202525,2.18728223814543,Strip Club
659,517a6e55e4b09f326eb284f8,Glassdrive,41.418853,2.187216,Plaza
660,5b00c81d974617002cd92dfb,La Casa de Palestina a Catalunya,41.418214,2.185299,Butcher
661,4dd6de7e8877f1150fdba0db,El Món De La Cervesa,41.41886259048162,2.18679022836639,Office
662,4cd26f7b2436b60c51e884ca,Escola Joan Roca Meridiana,41.42047964687481,2.186812501220343,Bookstore
663,4f3284274fc677646e96ef14,Consum Basic,41.41967168697789,2.1868942191299956,Salon / Barbershop
664,5062b421e4b0bda2cdf9a364,Clínica Dental Arnabat - Artés,41.4204784,2.1872767,Automotive Shop
665,53369b9a498e75f20900a7df,La Llar del Bon Cafè,41.41945,2.185957,Tech Startup
666,5d7d06a1abe41600074d7a6b,El Demonio De Los Andes,41.419854,2.183166,Furniture / Home Store
667,5b3a54ec67e5f2002c3f83d5,Merca Barri Navas,41.41821,2.18502,Pharmacy
668,576a834f498e81d5459bcee2,"Carrer de Felip II, 80",41.421753,2.1851377,Salon / Barbershop
669,50312d72e4b047ef9b4b8c14,Heladería Da Vinci,41.41815288939884,2.185929272151255,Dentist's Office
670,5777c1da498ec8fca7c8a4a7,Pont Nou,41.41788,2.185493,Auto Garage
671,5c3489e6eaf49a002c5627a0,Taller Motrio,41.418382,2.184822,Design Studio
672,5b32594fefa82a00393b1339,"Bbva Rambla Volart, 2",41.420624,2.1866465,Office
673,4d8a394bf607a0932de4fa86,Natura Verda,41.420963882461976,2.1868045880038696,Nail Salon
674,59fc8a72db1d816e999901ff,Envialia,41.420938,2.183877,Automotive Shop
675,4d7c919a34f7721ed949c825,Casa Angel,41.42276236535373,2.1895520844158947,Salon / Barbershop
676,50a0bddce4b00baa8de4aab3,Bon Area,41.42097494437839,2.1837116754666597,Bank
677,4d3c19b905b8721ed4598937,Bodega Calvo,41.41889096076744,2.1844172625728357,Spanish Restaurant
678,5256dba611d289149f371b04,Bar El Barco,41.41949462890625,2.1831789016723633,Spanish Restaurant
679,4f2f0299e4b0ccb9147e664f,Galapagos,41.41980621645921,2.1868077010155735,Bookstore
680,5217a5b611d2aa2a41ccb1f9,Bar Bodega,41.418841,2.184578,Food & Drink Shop
681,4c0fca38d64c0f47dd582a5d,Elter Sabaters,41.421758224543474,2.185430063378477,Event Space
682,4c1ca1c8fcf8c9b62d5aaa0b,Tunel rentat de cotxes,41.41835115329869,2.183894071074543,Residential Building (Apartment / Condo)
683,4ee5c87be4b04d23e24ded72,Parada BUS 0744 / Linea 71 - 96,41.42070997063906,2.1854520011478176,Beer Garden
684,5d7e5e038d63310008e45241,BLOW apartment,41.4181,2.183763,Cocktail Bar
685,4e85b8a9dab414aaf497fdf2,METRO El Carmel,41.42372600573539,2.152541472397467,Gay Bar
686,5720eb45cd10ac3bcf5a67e7,maca maco perruquers,41.41954347936362,2.186745298400098,Housing Development
687,4e2b3f33b0fbc2edac201bd1,Brasería Arnau,41.419290252652324,2.186682035555516,Housing Development
688,58e026265a586914215e07a7,Eli and Ray's place,41.418239,2.185294,Comedy Club
689,4fd22874e4b0d4674d7a14a6,Centre d'Estudis Sant Antoni Maria Claret (SAMC),41.420786570808524,2.186922906071165,Dive Bar
690,4ebd3015e300ba1044057dac,Pianos Barcelona,41.42156995769028,2.1844700620523576,Gastropub
691,552276eb498e09b59141ff03,El racó de la Sió,41.420494,2.183871,Shoe Store
692,50f1bf7ce4b0e33ec5a1c3b2,Arcannum,41.41953659057617,2.186039924621582,Daycare
693,50ef2c9fe4b06780b9d648b8,Dolce vita,41.420450111712576,2.1840332682194497,Office
694,4fcde9c9e4b064a73f835f07,punto de venta ONCE,41.42094437126312,2.1873549276526396,Garden
695,4fb60077e4b0a090cfee3bd0,Pepecar,41.421166,2.186066,College Academic Building
696,4ced4ea75de16ea82a57b596,Optica Dolcet,41.420988,2.1868,Trade School
697,4f7ae01ee4b07cdfacf0e149,Anthony' s night club,41.42110115459804,2.1873885295047866,Supermarket
698,4fa80faae4b028d55be7a213,Plaça Jardins d'Elx,41.42298656446911,2.1873204155432795,Coffee Shop
699,513f6e13e4b0b93d4fd548c8,bonÀrea,41.41810067538198,2.1844748620081096,Office
700,51ed84a7894be4e5c2a898a3,MAPFRE Oficina,41.4195456,2.1870391,Restaurant
701,5322eb62498ebf5932d07a72,Ediciones Dedalo,41.41933822631836,2.1860392093658447,Office
702,4e3965b1fa763bfcc36d706a,La Perruqueria,41.418797,2.184368,Post Office
703,4fd0de2ee4b0b63780945091,Auto Evasión,41.41842653958389,2.1853340623254547,Grocery Store
704,5322ed3d498e3d1391622fc9,eMedia,41.41933059692383,2.186048984527588,Sporting Goods Shop
705,4cc700af3d7fa1cde1a1ba5f,Dailux,41.41935058986309,2.183511257171631,Tram Station
706,5131f054e4b0424830fce219,schlecker,41.421165466308594,2.1844863891601562,EV Charging Station
707,4e900fab0aafb4070bc843f6,Peina2,41.419132,2.186877,Doner Restaurant
708,510ff7eee4b0ce6413ee84d9,Dentista BCN,41.42065099951548,2.1868461026680466,Doctor's Office
709,553888cb498ecddb2fe23c39,Brimovil,41.41946029663086,2.1868085861206055,Harbor / Marina
710,52f7b4f511d24b98bf6a28db,autoescuela barcelona racing,41.420484783373695,2.1871858835220337,Beer Garden
711,53e12293498ece002b47d761,Santos Maragall,41.42057418823242,2.1831963062286377,Gas Station
712,4e1e383a1f6ee970647214b0,unitono,41.42138526986547,2.185751668396378,Residential Building (Apartment / Condo)
713,50769206e4b0de29ddf66a57,mima't estética,41.42074203491211,2.186803102493286,Café
714,50a68a0883022abb641b3741,Automòbils Claret,41.41840926866826,2.1840476989746094,Asian Restaurant
715,4c3dd48815cb1b8dfc6f7cdc,Petti & Co.,41.419987092815234,2.18721091999864,Boat or Ferry
716,4cc9a77fe7926dcb85055e77,La Caixa-Meridiana,41.4209646956309,2.1872061197514316,Building
717,4d30a9add902236a479c55e4,Gulín,41.420564210077075,2.1868269018377196,Coworking Space
718,4d4ad89d5241236a7ff68304,Bar Ruaza,41.42113318079156,2.186159678065549,Diner
719,519c8554498e58ee9de76af5,Tot Cromo,41.4194862623345,2.186980508709403,Residential Building (Apartment / Condo)
720,4c2a332dd1a10f479211f664,Sorli Discau,41.42019510269165,2.18727,Bank
721,5322eb0e498e9e841e30dab2,Grupo Mediatica,41.41936000505034,2.1858524704416213,Shopping Mall
722,4e1df88a6284d5831b3fdb66,Telefonica,41.421276,2.185714,General Travel
723,4f6526f6e4b05c1d5a0e0a05,Ron&Coke,41.419517,2.18317,Recycling Facility
724,4dcbb914fa76d745f05a1358,Escalinata,41.42059,2.184134,Metro Station
725,4f2c7583e4b0c1a817b85352,Juntos pero no revueltos,41.42057596203368,2.186937306723822,Mediterranean Restaurant
726,53c78883498ec76f646b8326,biskaia,41.418447,2.185258,College Library
727,4fb702d9e4b06452f32cfaad,Tijuana,41.419686,2.183397,College Academic Building
728,52c1d6bc498e5a2a1ed48115,Clóscar's,41.41845703125,2.1854515075683594,Supermarket
729,5127e742e4b034d2a647c273,Yoni Bar,41.419589,2.187042,Campaign Office
730,52f765c4498eabe0f5e8f11e,entrehores,41.41811599054795,2.1854732639190657,Ski Trail
731,4f29ab0f6d861d4638265c25,Refort's,41.42097091783532,2.1872642038943013,Library
732,4f87fba2e4b05ae8877008b6,Estètica Olesa,41.41969924012851,2.18445566218817,Mediterranean Restaurant
733,4b913f3bf964a520e8ac33e3,Planeta Salud,41.42111,2.186348,Mediterranean Restaurant
734,4bb9e97b1261d13a8ef8e998,La Mina,41.41789705312993,2.2212238939810276,Hospital
735,4d78870771a68cfad3d30686,IREC (Institut de Recerca en Energia de Catalunya),41.414663461600774,2.220882820705185,Recycling Facility
736,51c2ea94498e64769cf21a43,Escola Restaurant D'INS,41.414369325563214,2.220955793299521,Café
737,4fcd16617beb176f5dde1be8,Oficina Correos,41.4181495,2.2196033,Spanish Restaurant
738,5d19d4c338c7d60023d76f66,Cada Dia Döner Kebab,41.417352,2.222089,Coffee Shop
739,4fc3e534e4b0524b5d3d8a72,CAP La Mina,41.41695574512472,2.221129131212365,Gym / Fitness Center
740,503aa876e4b0b44f291d62b4,Busfood,41.41554921792846,2.2228860625654674,Pool
741,5d1327684e4f71002344edde,Estación de servicio Cepsa,41.41771446,2.22469044,Bar
742,53983e81498ea56da157683f,Gasolá,41.41732406616211,2.222595453262329,Residential Building (Apartment / Condo)
743,4e46a56e814d84e76a9a5afb,Royal Tandoori Restaurant and cafe,41.415585223223836,2.220911979675293,Travel Lounge
744,4de3ca46b0fb267148a53eac,Bar Yun Lai 2008,41.41403531946469,2.2200949993188726,Sake Bar
745,4dcaa8af1f6e2812677c0a0d,Fundació Formació i Treball,41.41452466360002,2.2204312628643152,Office
746,55b21b42498e94bad1c410d6,Casa de Eduardo,41.417188,2.22185,Convention Center
747,4c1a7079b306c928679c60b7,METRO Besòs Mar,41.41584629717412,2.214931266378646,Residential Building (Apartment / Condo)
748,5065bba0e4b009d3f7964332,Consum Basic,41.41477750579246,2.21828402297655,Kids Store
749,4e528802ae6054e936230be6,Biblioteca Font De La Mina,41.41906784372579,2.219225529468182,Turkish Restaurant
750,4e6bf8eefa76fa035810f970,Restaurante Echo,41.41196109890858,2.219707602614838,Hospital
751,5380f3c1498eaced54c41452,restaurant,41.412109375,2.2200045585632324,Snack Place
752,50682986e4b0bb2afa1de5c0,Diagonal zero Barcelona Hotel Executive Floor,41.41199552660189,2.2197635419877755,Hotel
753,4fc1e7dae4b0e4e80d1af016,Pabelló Olímpic La Mina,41.41901516625778,2.2237844276865073,Coworking Space
754,4e04c8cba8095357d2d32821,Cepsa,41.41776998228023,2.2248221336909246,Beer Garden
755,4b856ed9f964a5208e5d31e3,Spazio Wellness Gimnasio,41.41186114863508,2.2196386456532444,Clothing Store
756,555d80f7498e26f751b61720,Racó de Thiami,41.41756031926837,2.221243109453463,Residential Building (Apartment / Condo)
757,54226d9f498e4b92c8bb85b0,Rooftop Pool | Hotel SB Diagonal Zero Barcelona,41.41203784748096,2.2200949993188726,Parking
758,525bdbea11d203ecd5414096,"Level 15, Diagonal Zero",41.411899,2.219564,Car Wash
759,57041c82498ec77c830a4985,sport bar,41.41695570977952,2.223452943289978,Spiritual Center
760,508b1854498edfd68462472c,480,41.41692969889123,2.223462551499138,Bakery
761,521342c411d259167aecfa3b,Forum longboard Spot,41.41224566907205,2.220162251827739,Butcher
762,5071c7d3e4b074bcae2ba521,Bar Restaurante La Cantonada,41.413172,2.220321,Building
763,4e3a66e8d164c429b72a121b,Bar Ahmed,41.41668521298781,2.220412047737154,Grocery Store
764,4b2f31eff964a5201aea24e3,Hotel SB Diagonal Zero Barcelona,41.41202934487175,2.2196387509803124,Bike Shop
765,561037a9498e4fc99f63fafd,Napoli Pizza,41.413653,2.21878,Photography Lab
766,539853cd498e7e5f9429518a,piscina's troko,41.416679,2.223485,Deli / Bodega
767,4eca932577c8be49263c1818,Grupo Union,41.4179345,2.2202926,Fruit & Vegetable Store
768,5150cc93e4b0ee7a9d2bbacf,Room 608,41.412207,2.220349,Arcade
769,4fa5240ce4b00f7194e02bee,Pacifico,41.41333781355903,2.2181783449013617,Physical Therapist
770,4dadc1dfcda1aece4a6052fd,Aire De Camping Car Barcelona,41.41705506777211,2.2249998912764615,Bar
771,5238a606498e505db716364f,Lacoste DM,41.4172491304095,2.22014303681499,Café
772,50466dc6e4b0eb12aaf5c73b,c/trinxant 65,41.41529614035922,2.1846812605891763,Gym / Fitness Center
773,4e12fc56e4cdef074b808d07,Parking Fresser Trinxant,41.41672048535035,2.182910679609343,Post Office
774,4f355788d5fb70c9dc119de5,Condis,41.41608406639095,2.1847987174987793,Tech Startup
775,4c0963646071a59341d6dd32,Frankfurt Berliner,41.416039,2.185919,Bank
776,4cb80fc49552b60cf79cc98b,Forn Giralt,41.416241,2.184908,Bakery
777,5a75b8f83149b946d895ffe9,Lavalotodo,41.415672,2.185166,Salon / Barbershop
778,4dbe7b34a86e0e98a211d4d7,ING Direct,41.41550166076624,2.1868219625672936,Butcher
779,533b0481498e46872bc0554a,Condis,41.417025,2.183999,Doctor's Office
780,4fb3c9fe7beba00e2f48cb1a,BBVA Oficina,41.41676678042976,2.184969260189326,Grocery Store
781,50b9fdf8e4b05175d398d82e,Centre Cívic Navas,41.4168975582767,2.1850703784731014,Miscellaneous Shop
782,4f801743e4b050ced575502f,Bicing 239,41.41716676708947,2.184753260316635,General Entertainment
783,4dc4f98eb0fb5556cce4f4d6,Creta,41.416303756905805,2.1856604667402246,Assisted Living
784,4e78c6c8c65b8073f5a333c4,Clínica Dental Navas,41.41608104181852,2.1859340722624534,Automotive Shop
785,4ce986f3678aa093e5c1eeea,Torres 2 Sandwitcheria Hamburgueseria,41.416191163989666,2.186910005509901,Road
786,4be980914f5576b00008b396,pica i menja,41.416749,2.186667,Flower Shop
787,5b0a7caf9411f2002c7e29c9,Vivari,41.417377,2.184386,Bar
788,5dee09149c40460008c8feb0,La Laia,41.417148,2.184233,Playground
789,4f4f44dee4b06597b73e1a3e,La Caixa,41.41511990624597,2.1868989049936296,Breakfast Spot
790,5ceb1506535d6f002c04dcc5,Negronix Bar Cocktails & Street Food,41.41431396041164,2.18576431274414,Health & Beauty Service
791,5086d973e4b0bdf6e159d166,Forn del barri,41.41695238197604,2.185492464172622,Hardware Store
792,4e6b91c9227162c38eed1408,bonÀrea,41.41516732217076,2.1880269694557684,Bakery
793,55ce3ffa498e0153c761c0ca,Choc,41.4156013149987,2.186633348464966,Restaurant
794,508c4d40e4b0499bc6e8a908,Poma Verda,41.416729967791,2.1869133056386167,Pharmacy
795,564383a2498e0f14bc3b73f0,Nufesa Electronic,41.41701942976166,2.1868557030862785,Breakfast Spot
796,4f8eecb1e4b040530b66bd66,Granier,41.415462801470504,2.1867994582804093,Other Great Outdoors
797,4f460671121d3195bec1a557,Casernes de Navas,41.41700128415138,2.184927463531494,Grocery Store
798,544a952f498e19baa6980887,king de navas,41.415766,2.186793,Hot Dog Joint
799,4c166c0f77cea59396aed360,la Sirena,41.41694306660415,2.1870189105091336,Mediterranean Restaurant
800,51c7e085498e31c14b985e36,Peter Pan,41.41626308578694,2.1833664178848267,Miscellaneous Shop
801,5a55f947acc5f54aa01ea04e,Printhouse Barcelona,41.41441,2.187066,Church
802,5aaaaa39be7078020223fd4c,Barber Ph,41.41632,2.183555,Electronics Store
803,5d3f330cb2edb300083d7df5,Que Posem?,41.417128,2.184099,Laundry Service
804,5cd077c538f216002558635f,natura fruits,41.417115,2.186451,Bed & Breakfast
805,4dc4200518387d1bd51ad4e2,LoteriAs Y Apuestas Del Estado Numero 80,41.416316,2.185862,Dentist's Office
806,525ee72e11d2bf9cc2e8e038,avenida meridiana 207,41.41564243602777,2.1866481839743948,Cafeteria
807,5c101feac9f90700390ca7af,Русский Медицинский Центр,41.417108,2.186754,Breakfast Spot
808,5d6eb7e68fd4690008465480,Vincle,41.415079,2.187237,Factory
809,5b2578d08fb09e002c679fa9,Borratatu,41.417113,2.186696,Restaurant
810,5bd5ac4401bc5a002c0ea5f8,De Tranquis,41.415653,2.1864567,Medical Center
811,4f82f782e4b08004b66608e5,Nivell 22,41.41770553588867,2.18521785736084,Bridal Shop
812,5addea901b0ea56cac3d3cb5,Sano Center,41.414343,2.188241,Toy / Game Store
813,4b8d081bf964a52010e532e3,Correos,41.4212249571739,2.182927936826611,Toy / Game Store
814,4b705c81f964a5203f152de3,moluanda factoria digital,41.41606339587357,2.18486731241595,Mediterranean Restaurant
815,4ce3d5400eec8cfa3e6ea02a,Simply,41.416984,2.187043312492905,Gas Station
816,4be2f3a121d5a593c0bd1711,El Cafetó,41.414413184202516,2.181294956379641,Automotive Shop
817,4d712ea91529a143a88697a0,"Mónica Ballester, Estilistes",41.416072,2.186007,Alternative Healer
818,5a3aa79c234724440aadb4ac,Charcuteria Gracia Martinez,41.416861,2.184446,Salon / Barbershop
819,4e97f0cfe5fab92b219c441a,Centre Medic Navas,41.41604921244235,2.18595327271236,Monument / Landmark
820,4f708864e4b0e0075d4dfb18,catidal,41.41653351251824,2.183865271718945,Train Station
821,5016b5e1e4b0c7c30e3c3ef3,prink meridiana,41.41431095623514,2.1861164768668817,Metro Station
822,566bd28d498e0e75b6431b09,casa de soria en barcelona,41.415965,2.186586,Office
823,50d032c945b0c479f96dfff6,Centre d'Allotjament Familiar Temporal per a famílies desnonades,41.41698519272335,2.1846914291381836,Playground
824,5ceec04fd552c7002d01f32e,Kamperworks,41.415855,2.1845884,Food & Drink Shop
825,500bfeb5e4b0647ba56b0535,Carrer Fresser,41.41612047808457,2.184254064572769,Track
826,4da585114df024212d4934cb,Floristeria Emi,41.416233,2.18594,Office
827,573f51c1498ecc22f6e6d520,Frankfurt,41.417362,2.1864567,Tapas Restaurant
828,4ed928f7f5b921398727096b,Bar Balcón del Cinca,41.41684036969169,2.183253765106201,Historic Site
829,53e536eb498e35f10c679fa2,Plaça Mainada,41.419633,2.183685,Student Center
830,5131cf2ae4b06242ee9b13bd,coffee and Brunch Bcn,41.414345152573965,2.1837932734104877,Bar
831,50d02b9545b0c479f966361a,Centre d'Allotjament Familiar Temporal per a famílies desnonades,41.41478062939756,2.185850143432617,Parking
832,4facecb2e4b08d12aa495f62,Peluqueria Lidia,41.41575336056701,2.1866060928769664,Platform
833,4e9ffa8ab634b812261a76d8,Utilnorm,41.41651850091699,2.1862076794459773,Pharmacy
834,517abeb8498ea1b6ff89802a,Forn  Pastisseria Bon Gust,41.41735200507398,2.1865810329797255,Electronics Store
835,56eea3c8498eb3c168bc6f95,El rey del pollo,41.41442985033241,2.1855164645010725,Gym / Fitness Center
836,4e0cacb2ae60909ff14ccefb,Optica Bassol,41.41599451753,2.1863756846801405,Chinese Restaurant
837,4df75220d22df20cc2d6f571,K.K.J Döner,41.415748,2.186716,Shoe Store
838,5004787ee4b07d578e5dd520,Cafetería Cervecería Arias,41.417397023483915,2.186015674231058,Bakery
839,51768ff7e4b08db3914e7592,Hort comunitari,41.41543,2.18343,Supermarket
840,4f64d2e9e4b09ff9bcdf39fa,Caprabo,41.41677832141812,2.1866300937985517,Trade School
841,4ba6ab58f964a5208d6739e3,Casits,41.414923,2.186645,Japanese Restaurant
842,5363e2b9498ed0312c6f2400,Torres 2,41.41646677726967,2.1855836654887413,Courthouse
843,50804eeae4b0a7491b65918b,Megabar,41.416659,2.186708,Government Building
844,53779776498e2b3f9dcfbd11,peca-tapes bar restaurant susana,41.4160041809082,2.183689594268799,Falafel Restaurant
845,4e6f99f6d22de80163b0000b,Basar Xinès,41.41589287533611,2.1862076794459773,Diner
846,4e99f3e46da1cbe0b8278685,Bar M2veinte,41.416023,2.186472,Miscellaneous Shop
847,4bf96b9bbc869521c9b67a6b,Iglesia Evangélica Nueva Vida,41.417202426665376,2.185506820678711,Chinese Restaurant
848,4eae9493cc21b06a580fd7e6,Foto Nens,41.41556867202446,2.1870669128048146,Wine Bar
849,5174f570e4b093e58cc81696,Tintoreria fernandez,41.41543,2.18343,Other Great Outdoors
850,56801254498e3cc410ea659d,Carrer de Trinxant,41.41563138868145,2.1835724793153246,Bakery
851,5444f246498e4795b13072f3,Clínica Dental Sant Jordi,41.41624900562762,2.183229625225067,Building
852,4dee210c2271e7b4462de88f,molucuina,41.4159036,2.184801,Breakfast Spot
853,55fd19db498e47bc07ae5723,Lyon D'or,41.41689858333722,2.1847196604295034,Pet Store
854,52e22c5b498e75149ea082be,Servei Grafic,41.415944,2.18607,High School
855,50265e9ae4b030d4ec9aa59a,Restaurante MiKasa,41.41547819170586,2.1866828958710354,Restaurant
856,4fc6352ae4b00925bdffc80f,Clariana,41.415128502020515,2.1847580603025563,Supermarket
857,4e16e01db0fb42f9873623a5,Brodats Arxé,41.41547,2.184399,Gas Station
858,52f65cb4498ed288a01c1be2,Homoludicus,41.41563415527344,2.1866166591644287,Bakery
859,531b7137498e2d70d94cb08c,Dungeon Marvels,41.415687561035156,2.184453010559082,Dim Sum Restaurant
860,4d208891756e8cfae9226d54,Buen Gusto,41.4151683,2.1839820999999997,Building
861,53a8082e498ec4faa092096d,Perruqueria Arjona,41.41669554633709,2.1846485137939453,Nail Salon
862,4fb7a176e4b0ef49414a5e65,Benzinera Sagrera - Meridiana,41.414479351457295,2.1867740995965033,Event Space
863,4e27138b483b329ccb414032,TJ Autosonido,41.416684243583596,2.183390085009369,Bike Rental / Bike Share
864,5304c4cc498e4a48f2e99bde,centre correcció i condicionament físic. arc,41.417563,2.185027,Bike Rental / Bike Share
865,53fb2c2a498e858857b2777f,natural perruqueries,41.416228250944826,2.1832076914418264,Bike Rental / Bike Share
866,4ba89dd4f964a5209de239e3,RENFE Arc de Triomf,41.39302648719852,2.1818525100033224,Video Game Store
867,4bfeb2c5e584c928cf166d25,METRO Arc de Triomf,41.39179284807239,2.18090863584455,Flight School
868,4d79da03b359f04d6bfbcd14,Endesa Cataluña,41.39273335024847,2.1821635506856283,Café
869,535527f5498e5522be9ab571,Plaça d'André Malraux,41.391788774211044,2.180903836268752,Café
870,4db840631e7206c23d03e928,Yang Kuang,41.392082371,2.179492636,Restaurant
871,5bd40ee32b274a002c2bdb32,Arc de Triomf Running Path,41.391277,2.180268,Bike Shop
872,4bf10afdf45ec928ca66943c,Endesa,41.39168205677014,2.18261291211103,Massage Studio
873,5b8048a189ad460024d6c814,La Triunfal,41.391813,2.180105,Restaurant
874,50092988e4b08a1af56ee9da,Central Catalana de Electricidad,41.39224886616107,2.1811390160842854,Lounge
875,4f22a37ae4b067a324edd127,INS pau claris,41.3913926877358,2.181163014093685,Bar
876,4d8b4e9e99c2a1cdbd5ba2d7,Bar Lleida,41.39161469385433,2.1800511198547223,Bar
877,5d5bf9cc88ba3500083fd22a,Parking Saba Lluís Companys,41.390643,2.180727,Government Building
878,50394f4ce4b0bbf1afadafce,Parc Ciutadella - Bicibar Barcelona Tours,41.39082574595902,2.180932633731213,Bus Stop
879,5888499a4745863ba62828fe,Via 1 Arc de Triomph,41.39189,2.1807785,Event Space
880,4f802d93e4b08004b3af81ae,Farmacia Salvado i Lladòs,41.39133602023948,2.180279895769614,Tapas Restaurant
881,513489dfe4b031602186208b,René.,41.3905052698203,2.1805582681552482,Historic Site
882,4cf95452c671721e2291b618,CEM Estació del Nord,41.394322347306115,2.182742111209719,Falafel Restaurant
883,5bb3650b75eee4002cec0806,Restaurant Xines,41.391388,2.182654,Falafel Restaurant
884,50055352e4b0b7eb528b5c46,calçats eivissa,41.39119168679449,2.1796367661472082,Toy / Game Store
885,4db28e1b4b220b5fbb04a9dc,El Nostre Pa,41.39087285012953,2.180580058186763,Restaurant
886,599776daacb00b41b9832705,Carrefour Express CEPSA,41.392722,2.180944,Bakery
887,4ea030d3550372a831668932,Escola Pere Vila,41.39157958470258,2.1812254089779595,Hardware Store
888,559e8289498e645c12a6a6ad,Arc de Triomf Wok Japan Restaurant,41.39101354268601,2.1802292287259433,Campground
889,4d9c25aef475224bfe01d4ab,Tribunal Superior de Justícia de Catalunya,41.39032428922069,2.1819796400171834,Bus Line
890,52e0d55211d2cf6868fbbe90,Oficina Antifrau de Catalunya,41.39245360347233,2.1809278341528575,Bike Rental / Bike Share
891,4e3c02a4d164b5291198b647,Triomf Döner,41.39173756793246,2.1796915537093104,Bed & Breakfast
892,51f41f68498e8673075a0b8b,Bar Roger de Flor,41.392669,2.180551,Diner
893,5c951b216f0aa2002cf5ccc9,Fantasy,41.39195,2.179236,Mediterranean Restaurant
894,5c7170c7acb37f002c70b30c,Qing Shi,41.393124,2.181454,Restaurant
895,57e52ea1498e8c00c1b224d8,Mostra De Vins I Cavas De Catalunya,41.390564,2.1813228,Government Building
896,506fd7c0e4b0c48e3935c5e7,Free Yoga BCN,41.39147800362754,2.1805294709321266,Medical Center
897,521c613711d2e666dea1544b,Pà i Café,41.391629,2.182623,Design Studio
898,4f10073be4b07e9ec8e0e51e,Fundació La Roda,41.39123188196784,2.180356687980023,Deli / Bodega
899,568fa1fe498e7bcf9eac3617,Glurps,41.391598,2.1796858,Coworking Space
900,566719ea498e8f949b9fa2ca,Aquanatura,41.39285050432667,2.180611063112122,Parking
901,50aa4f42e4b0ea2d5b4de825,IES Pau Claris,41.391222357227726,2.1818349635475833,Paper / Office Supplies Store
902,4e626954b993678bb66c8796,Cafeteria-Restaurant Frida,41.3930621,2.1815884,Hardware Store
903,50490275e4b0bec16c388d52,Tot a l'Arc,41.390986660748666,2.179996725625244,Dentist's Office
904,4ed8032e5c5ce1cd63f2d76c,Cepsa Arco Del Triunfo,41.392910535634584,2.180798245730573,Historic Site
905,512098dce4b002b6eceee5b7,Pans Artesans,41.391509,2.180041,Design Studio
906,596fbb596e46504a8b1bc1e6,Gyoza Bar,41.393203626600155,2.180010023463534,Office
907,4e116f57b61c637b97ad83da,Palau de Justícia,41.39070031915428,2.1819453562021898,Toy / Game Store
908,516ee119e4b03cf0b01878c9,Xinfaxian,41.392408087559616,2.1794399895153864,Office
909,505440e6e4b0c7508ab9d1fc,Expotest electric,41.391415172680006,2.17971355726113,Office
910,4e9086a661afcfde29e7b1f5,Bicing 6,41.39119829141046,2.1803326904002063,Gas Station
911,4e94266e9adff7d37fb87c2e,Bicing 5,41.39102940575146,2.180203103690128,Food Truck
912,4d2dca09feaaa1cdefa9eb90,Bicing 419,41.391137215057825,2.1810007095336914,Electronics Store
913,588085b0d8e55959a64f135f,Kaixuan,41.393,2.1802669,Office
914,562dfb72498e7ab0c57fb4a1,Play 2 Cash,41.39136890399942,2.179224016153004,Gas Station
915,5d9dd2ab6b8567000878ecd0,Dreamair,41.393105,2.181389,Office
916,4bfccf90e529c9285f09ba8c,Trole,41.39137403942297,2.1797983862416603,Beach
917,52457a3d11d23b788da42757,Cafeteria Bar Gala,41.39321358864744,2.181527785410656,Beach
918,4eb3e90b7ee5024d7e55c46b,Raco De l'Alba,41.391588413647675,2.1825021232786592,Bistro
919,572b1da6cd10afb6e341ab2f,Ben Bike,41.390764,2.180056,Skate Park
920,5a15b4fb7564f76a3daefc52,Chinese Massage,41.392784,2.180398,Mediterranean Restaurant
921,4c7bb124a86837048604174d,Cafeteria Estacio RENFE El Clot-Aragó,41.409420993048194,2.1875834209220537,Beach Bar
922,543722a9498eef542c8c442f,El Born Panorama Terrace,41.39103122222082,2.1798479420255314,Event Space
923,5905d9889e0d5461891d2159,Bar Smile,41.393225,2.181236,Beach Bar
924,51f02737498ed4768e3552ec,bar sangria,41.39317321777344,2.181521415710449,Beer Garden
925,51a46eb4498eefd1b3732175,Fondo Garantia Salarial,41.392420085650855,2.182396528994006,Residential Building (Apartment / Condo)
926,4e808d40e5faa038ae43043d,Parada Bus Pg Lluís Companys - Arc de Triomf 1127,41.39071226119995,2.180298906329042,Restaurant
927,4d961d30c19fb60ca0747665,Massa Crítica BCN,41.39097,2.180696,Building
928,4b8a94c9f964a520697332e3,Bar Arc de Triomf,41.39223789501667,2.1794798970222473,Cafeteria
929,53d1242e498ee5b4bdbaa821,Hidroelèctrica de Barcelona,41.391976673863425,2.180793446166537,Office
930,514dae89e4b0fb27112e0d46,kebab aec triomf,41.390865325927734,2.1808087825775146,Bike Rental / Bike Share
931,4eff2ae66c25c5ce80a2aca6,Super Döner Kebab,41.391027244045056,2.1825837190317783,Bowling Alley
932,51d82f0d498ec3d14ff746f0,Ninja-shinobi,41.39160541737968,2.1796127689509577,Park
933,5530e96d498efaf6be22d5bc,Restaurant Elisabets,41.3928,2.18244,Housing Development
934,5009a5e8e4b042b405a0478f,panaderia cal moline,41.392118140951446,2.179315204779686,Beach Bar
935,4f85a980e4b013f9e65a5be7,Servei Tècnic SINGER,41.392940521240234,2.1811306476593018,Science Museum
936,4db59a714df05e5aaaf5c8d8,"Parque ""La Casita De Madera",41.39194071292877,2.1793323755264282,Coworking Space
937,509152b6e4b0e45182db4ea5,Parada TMB 8903,41.390625,2.182156562805176,Residential Building (Apartment / Condo)
938,4e6dc5cbe4cd7236ef990912,Bicing 418,41.39129101407237,2.180135910727976,Breakfast Spot
939,5b587d896dcf04002cb1fa2b,AirBnb - Andrea & Agu,41.393311,2.181234,Italian Restaurant
940,4c7c26a8df08a1cde89be25d,Casitas,41.393185,2.180432,Bank
941,50047c37e4b086067016cdd4,Merlotte's Bar & Grill @ W Arc de Triomf,41.39154487776552,2.1821661423229766,Fast Food Restaurant
942,4e7c78eeb8f742824fd809ee,Bar El Pont,41.39311721826514,2.1803784370422363,Other Great Outdoors
943,4ed942de775bcc53f9286b5b,Restaurante E&V,41.39292937512576,2.180577466314224,Restaurant
944,4df717c7d1642d7385a58b4b,Agència de Gestió d'Ajuts Universitaris i de Recerca,41.3916398,2.1814367,Health & Beauty Service
945,4ef06221722ece9f171a7a68,CAS CREU ROJA,41.3914685,2.1794459,Residential Building (Apartment / Condo)
946,56cdf8f2cd10c173a3ea6da6,Wylma Blein,41.391364266962036,2.1805966644813832,Playground
947,4f8589bce4b04b40a97ef8a3,Supermercat Chino,41.39202705892197,2.1825261220142353,Medical Center
948,4f63471fe4b0777dfb371e62,Talent BCN,41.392075,2.18071,Veterinarian
949,4f88772ae4b0e81f66928b14,BSM Estacio Del Bits,41.39319412040393,2.1815757818564743,Italian Restaurant
950,5257f901498ecf6c695e3123,Copisteria Fengcai,41.392975,2.180318,Snack Place
951,51c2c086498e48128bf72942,factotum,41.39213562011719,2.179792881011963,Building
952,532aa7aa498e77ef60446a29,Dens Dentis,41.391703,2.179581,Tech Startup
953,4e6f03e4d4c06eaf9c00c3b1,AADPC,41.39207077026367,2.1796047687530518,Fast Food Restaurant
954,4d08d2ea790fa0931673c573,ca2L,41.39199027771458,2.18167177490153,Café
955,4bd812470b779c74dd4a06a0,Talència,41.39133729674034,2.1796943594703757,Building
956,55e4869f498e2abd20bc2733,Kaburi Miniaturas,41.39189529418945,2.1794040203094482,Coffee Shop
957,4e79f5a5b9937f472da4132e,Imira Entertainment,41.393064157933225,2.18161417904995,Restaurant
958,525d388411d25a2923d61cb7,The Passenger Consulting,41.39213115987653,2.1803518884630364,Spanish Restaurant
959,4ea00a0ed22d6eead8010d99,CEDIPSA,41.392722,2.180944,Tapas Restaurant
960,5272c64411d21fa69c1a9079,Castanyera Arc de Triomf,41.391649,2.180317,Spanish Restaurant
961,4bcc2ade511f95214489b2c7,Latiendadelcad,41.391463,2.182419,Building
962,50d19af7e4b0ac856f2eddbf,Edifici Catalunya recerca,41.39149141361369,2.179742353962605,Parking
963,4bfccf67b68d0f47d5e7e757,Depaso,41.393067,2.1813708543777466,Beach Bar
964,515180fbe4b0dfc16db2db40,MAPFRE Oficina,41.391925,2.179943,Beer Garden
965,57b1afc5498e971e5b45e0c9,Bao Bap,41.404211,2.217448,Residential Building (Apartment / Condo)
966,59382c6bd0a1491fdd172a75,Barcelona tattoo ink,41.405419,2.212839,Doctor's Office
967,516f9cfbe4b01048f0a29a0b,Bicing 178,41.40533808224933,2.2165211528786988,Residential Building (Apartment / Condo)
968,4d00c79ff7b38cfaf321d1c3,BBVA Oficina,41.404887,2.212926,Office
969,5079bc6572da35cc8ef727cb,Burger King,41.40529371675029,2.213444709777832,Office
970,4cb62c1586e09eb0e4a562e2,Barcelona Mar,41.40532968197912,2.212443278389097,Residential Building (Apartment / Condo)
971,4f70a93fe4b0738fb514e8d5,Clinica Veterinara Curasana,41.405518449886536,2.213298208609715,Bike Rental / Bike Share
972,4e575cbf18a802f9c8b7f9fe,Bar Coto Alto,41.40508944191422,2.2131397090880864,Office
973,4c9cba86d3c2b60ca23cbabc,Selva Del Mar,41.40535166291489,2.214096773223782,Other Nightlife
974,4c19f0224ff90f47eda41049,Kibo,41.40570195816948,2.213977262102659,Residential Building (Apartment / Condo)
975,4e736e17b0fb38bb72e1ea1d,Albatros,41.4052791770583,2.2131781331634532,Nudist Beach
976,51af8c2f498e80230a66d076,Corner de Taulat,41.4051286374778,2.2130060136547387,Cocktail Bar
977,533ffec8498e95eaedd6dbea,First Line Beach Apartment,41.405400140852215,2.2148159897754005,Beach
978,51e902fe7dd22fde4b90301e,Safe Candle - Vela Sin Llama,41.404517160868735,2.212345004081726,Beach Bar
979,4f796c6ee4b06ff837fb3f4a,Engel & Völkers Diagonal Mar,41.407032,2.21579,Internet Cafe
980,50297036e4b0d436438f7ce2,bodevici-mataró,41.40758097842893,2.2170783468900304,Hotel
981,502d0af4e4b078fb585f15cd,Swimming Pool Illa del Mar,41.406323,2.216692,Beach Bar
982,4d3b5f7c325ff04d1a9c2545,Egarsat,41.40756788148476,2.2181783449013617,General Entertainment
983,4fad61f0e4b0c811fed18edc,Farmacia Cristina Domènech,41.405602,2.214928,Tech Startup
984,4e89d16a0aaf7f40fd2851b3,Bar Restaurant Angel,41.40505146431758,2.213003582051988,Beach
985,5bea9b4a610f040039f54941,Caixabank Taulat 281,41.406244,2.214356,Mediterranean Restaurant
986,501240c3e4b0d93bf73ab783,societat de prevenció asepeyo,41.403106689453125,2.212869644165039,Coworking Space
987,5ade52938ad62e3a04ea3515,Bluesaltschool,41.40399,2.2131417,Spanish Restaurant
988,4f9b1005e4b087d95c6bb533,Paseo Garcia Faria: Building 77,41.406066199068334,2.2155364733732537,Mediterranean Restaurant
989,5b0fd9d76fea59001c725e73,Europe Bar,41.405097,2.2146,Office
990,5002fb5ee4b0a4b26d8c6c30,Illa Del Mar (Gym),41.406224705179085,2.2163591319804263,Spanish Restaurant
991,502cc242e4b0265f8a324ad5,Barcelona Martial Arts Academy,41.4052908512243,2.215358753017848,Gay Bar
992,57610880498ed29e47bac48e,JDE Barcelona,41.407566,2.218092,Parking
993,589984b7460dd928197565e6,Tokio Marine HCC,41.407616,2.217459,Argentinian Restaurant
994,529a9f3611d2e90d4b4a5e19,"Microsoft Barcelona, Josep Pla 2, Barcelona.",41.40726852416992,2.2179019451141357,Hot Dog Joint
995,4ddd01bd22713339cd223d6a,23rd Floor,41.4064905,2.2167023,Italian Restaurant
996,4e4ba5a4922ef82562174144,YouStylish B410,41.40523738658402,2.214539051055908,Italian Restaurant
997,4e1d7ae42271ff848fe6ba93,Impacto6 - Marketing a Medida,41.40486075291883,2.216408524148366,Sandwich Place
998,4b6f4e98f964a5206bea2ce3,Hermanos Veras,41.405401080569675,2.213058058036495,Gift Shop
999,4dcec66afa7664b7c6b0a6de,In The Rain In Barcelona,41.405785939930716,2.213562375715431,Beach
1000,4d3b5ec5325ff04daf942545,Josep Pla/Garcia Faria,41.405787262751716,2.2185866479231686,Road
1001,58e4f8838b0ebb31a48d5923,Bicing 168,41.405533,2.213145,Beach Bar
1002,4e51b87618383eb2af41eab7,Jacuzzi,41.406894,2.216692,Athletics & Sports
1003,5220a49c11d2bfa4f390f462,Selva De Marc Bao Resort,41.4071152682437,2.2145998469374235,Wine Bar
1004,5730a19bcd104595ccc23770,petons casa,41.405497,2.213703,Thrift / Vintage Store
1005,5752f827498ecf0184493d7b,Sortida Ruta Escola Oficial Patinatge,41.406666,2.2183726,Skate Park
1006,51fcded2498e91fb58772737,City Tour,41.406923,2.218032,Beach Bar
1007,5002faf3e4b087cfc2ce45c4,Illa Del Mar,41.404818463333505,2.2163340747906957,Athletics & Sports
1008,50471423e4b0a72f368638c1,Boo Beach Club,41.39949733940298,2.214589250794917,Hotel
1009,4df7d09318a801cd9f110b67,Platja de la Nova Mar Bella (Playa Nova Mar Bella),41.40187358241788,2.215096950531006,Bike Rental / Bike Share
1010,4e2daaa6227197a112f03fd5,Boo Restaurant Chill Out,41.399597235135296,2.21441892068012,Café
1011,52f0d7e911d25416482ce5c0,Espigo de Bac de Roda,41.399448096910554,2.215353949774705,Garden
1012,570d0b5b498e256f493d490c,Frindel,41.40267072652703,2.2133654509990923,Tapas Restaurant
1013,5d88f835bde3630008af27a3,Bocafí D'en Noguera,41.4044,2.214473,Football Stadium
1014,4b67481ef964a520a6452be3,McDonald's,41.40279078464682,2.216050425363623,Gym / Fitness Center
1015,5283322f11d2b516c1fbf718,Il Cafè di Roma,41.39621180176277,2.215939949208668,Spanish Restaurant
1016,4b0441e2f964a5209d5222e3,Hotel Occidental Atenea Mar,41.402481950041995,2.2122413542306303,Restaurant
1017,4e541868aeb74b74581fb40d,Peixaters,41.40181084547834,2.213591194038636,Parking
1018,5c66a4eaf62e09002c38ece3,We are mobile first,41.403044,2.213061,Building
1019,578f5d00498e9c9a3cd662e6,Àrea de Gossos Platja Llevant,41.405256,2.219753,Residential Building (Apartment / Condo)
1020,4ed151ed6da162f1bf9def29,El Comedor Del Atenea,41.40255013510443,2.2124000520101053,Café
1021,5d28b7b9c83585002494c80b,AticcoMED,41.403127,2.213036,Beer Garden
1022,539d82f3498e0fb58c424a48,Chiringuito MariCarmen,41.400895,2.214253,Bed & Breakfast
1023,4e3fc617b0fb875af87f8aa1,Tapas Sin Fronteras,41.40418224046321,2.2129455223937375,Hotel
1024,5cd58fe8db1d81002cdec713,Cossbelt,41.404171,2.213023,Tapas Restaurant
1025,4de72f8e7d8b1f2dd29274f6,Virtual+ Ingram Micro BCN,41.402518,2.2132,Beach
1026,4c00fae79a950f47625d08c6,Dracula Restaurant,41.404060839284135,2.2150609529090217,Office
1027,564f456838fa81e594fe59a9,GREENFIELD OFFICE,41.403351774798814,2.2130101209406194,Office
1028,4dc680d9fa76d685cdfb37dd,Xiringood,41.400657,2.214261,Office
1029,51c3febe498edd33ec5a02a4,Front Maritim Breakfast,41.404025,2.213993,Office
1030,4fcf60e5e4b07997d30d444a,Centro Wellness O2,41.399254631118524,2.213807332048909,Building
1031,4d6e022a24b56ea8b715fafb,Aparcament de la Platja de la Mar Bella,41.401358534829555,2.2129082679748535,Boat or Ferry
1032,4e5e8450e4cdfc603edc768c,Chiringuito Bambu,41.40243720660779,2.2119389732091275,Skate Park
1033,4eb6217c469073bbc6786c11,Brooksies Room @ Baracelo - The 'lona,41.40160947082285,2.2133846631287346,Gas Station
1034,55368e5e498e0b590f9e187b,El Corner Del Taulat,41.40303307151997,2.2124240666599917,Music Venue
1035,4fa7aaa1e4b0ed0283920a8d,Mamarosa Beach,41.40380964713335,2.213756556873465,Fast Food Restaurant
1036,5d34b30eeda47a00082a3e3d,Chiringuito Origen,41.401638,2.2148228,Gas Station
1037,50841cd9e4b0a0ddb3db5bd4,Gaudir Beach bar,41.400780310271585,2.214302051832963,Gas Station
1038,4feb694fe4b00f59d9821980,Surya Beach Restaurant Bar,41.401755,2.214616,Travel Agency
1039,4d2c791dec272d43a2453a4c,Temple dels sentits,41.40435068233167,2.2130196340633055,Diner
1040,51aa4c8a498e2264991c864a,chiringuito surya,41.40178569527152,2.2145854374516736,Auto Dealership
1041,4bfe691ef61dc9b6675aa0de,Nueva Ola,41.404171355137656,2.21750105038032,Gym / Fitness Center
1042,4feb63eee4b0fadb6fe81045,Sahara Beach Bar,41.39964121256385,2.2130882951590447,Travel Agency
1043,4e5d51c018389da163f2e44f,Boi,41.40296173095703,2.2136106491088867,Construction & Landscaping
1044,4cc334a21e596dcbaed0c867,Guadarich Inc.,41.402862,2.212222,History Museum
1045,4f05763399116f05b599ea6b,El Guante Industrial,41.40351763251959,2.214835202522173,Factory
1046,56d2f6bf498e02f9054ed9f7,Bicing 471,41.40442,2.215224,Metro Station
1047,4cb44b831463a1439d98b9a9,Les Petits Plaisirs,41.40470773168745,2.212901204973217,Factory
1048,4e7375972271391c70595546,Jardins de Carles Barral,41.40272415573359,2.2114538849700036,Language School
1049,5af46b581953f3002c6fa556,Chiringuito Baobab,41.40110905718645,2.2147375345230103,Diner
1050,55cb3663498e1b8c4ad80784,Restaurant Casa Isabel,41.40433386471011,2.214426933411878,Mediterranean Restaurant
1051,509249b7498eeb72631ae5b7,Camp de Fútbol Municipal Agapito Fernández,41.400788277719585,2.213426944855338,Bookstore
1052,5cde63af916bc1002ccb8a8a,Occidental Gym,41.402196,2.211834,Hardware Store
1053,5262d41111d21ab02cb0a398,Quintxo Rugby Enginyers,41.400350452026636,2.21123295542017,Auto Dealership
1054,5d26d64c53331f00237362f6,Workout Hřiště Mar Bella,41.400536,2.2138112,Building
1055,57822b14cd10e8816bcfd4b2,Mamma Beach Bar,41.399773,2.213106,Assisted Living
1056,52b85d8f11d2dca10c9afde6,WeSmartPark Hotel Barceló Atenea Mar,41.402034533952104,2.211588621139526,Historic Site
1057,4df7908ec65b87473b079b04,Clece,41.403164123201634,2.2125651816779035,Building
1058,508655e7e4b0fa68ce7e4b61,Barcelonapartments Provençals,41.40437316894531,2.2129030227661133,Soccer Stadium
1059,4dc66cd97d8b14fb46430af4,Jardins Ferrater i Mora,41.40358138217583,2.2145181932456333,Science Museum
1060,4b787222f964a520e4ce2ee3,Hotel Front Maritim,41.40391685394389,2.213498715695228,Miscellaneous Shop
1061,520d339d11d28dfadb068d9c,El Flamenco Cojo,41.40254809970468,2.2123664315217217,Coworking Space
1062,4bf0fa3ef45ec928425d943c,ChipSpain,41.403881670971664,2.213379860095558,Bus Station
1063,51bc65e0498eb31d33c1b888,Chiringuito City Love,41.401814,2.214708,Bus Station
1064,4f61e3e3e4b0448e9b38eb45,Axa Group Solutions,41.40347458970703,2.2134663147709075,Cultural Center
1065,4d6b61678fe6a1437fbcf3a3,Sant Jordi Asociados,41.40501916408539,2.215365171432495,Office
1066,51711779e4b0e30bac522776,pharmexx,41.403252283638466,2.212611381367455,Video Store
1067,4c006035df6c0f47dd4d8b22,Escenari Vice (PS10),41.40422383787959,2.216031212099871,Auto Dealership
1068,4ea6b3067ee5bebc94bfd2cc,Azucarera Ebro,41.402867283922355,2.2128371206371704,Mediterranean Restaurant
1069,50effa36e4b022eb9560cd8f,Amphos 21,41.4028,2.212435,Music Venue
1070,51c4c6bd498edf95246cbe49,Buque Fortuny,41.40341089196538,2.2140282741953365,Office
1071,4fec4d59e4b0e23ed1edf1c9,El Bullit,41.428511702332784,2.2104502119440252,Paper / Office Supplies Store
1072,52ecec2b498e361571a755e9,McDonald's,41.42925181842988,2.211607912436378,Factory
1073,567eea3b498e7902a6663e9c,Halcón Viajes,41.42758,2.212869,Music Venue
1074,5745866c498e2f012ecb4e8f,Barcelona Premium Litoral,41.43252765400632,2.210547924041748,Concert Hall
1075,4c84d21e51ada1cd0bfd3110,Gasolinera meroil (odiseus),41.42878290706104,2.2117468584317104,Building
1076,52c9ace6498eaa0b08eb03e5,Halcón Viajes,41.430345892741464,2.210738269261722,Office
1077,4f868d2ee4b079949fb0df5f,Metalmalla & Beico,41.431605806,2.209448504,Automotive Shop
1078,509e29d0e4b09c892259a739,Museu d'Història de la Immigració a Catalunya,41.428035736083984,2.212475538253784,Salon / Barbershop
1079,4d301183f986a093f310f966,BMW Litoral Motor,41.43137368925772,2.2118189013774465,Building
1080,4c6169a2b36eb71387fcafd2,Poligono Industrial Montsolis,41.43105954583117,2.2108103105980743,Spanish Restaurant
1081,4eaf10f793ad8dcab6b77ddf,Doner Virgili,41.4291757,2.20935945,Restaurant
1082,4e440dadfa76eeb2dabe9e97,Nikochan Comics,41.43193032466781,2.2129812101228126,Tapas Restaurant
1083,4c984e6a6ffe8cfa8545fc2f,Covacasa,41.43175544563104,2.209775447845459,Salon / Barbershop
1084,506b26b2e4b07f06b13d74fb,BMW Barcelona,41.432228184022584,2.2107691652534984,Salon / Barbershop
1085,4d483cc9c3e5a35d62ce9b4f,A,41.432527,2.21097,Grocery Store
1086,4f12fd7fe4b0d59e218cbfa6,Portal Del Convent Del Carme,41.42851186273425,2.211953381850387,Health & Beauty Service
1087,5c9fba913ba767002cfccaa9,Arco De San Adrian,41.428655,2.212233,South American Restaurant
1088,4c7f22212042b1f7913dc2ad,Videoclub Mavy,41.4321,2.210974,Playground
1089,531cea26498e920f62411627,Stock option,41.43108789591523,2.211031238079712,Butcher
1090,4c84d29b47cc224ba55f9b9f,Cobo concessionaris,41.4294462568746,2.211276180681809,Latin American Restaurant
1091,4c459e8d36d6a59371106ca8,BMW Restaurante,41.431305,2.211049,Hot Dog Joint
1092,4e00dd9545dd1e4999dc2063,Summer Music Festival. La Maquinista,41.43156723468317,2.2115163217778484,Tea Room
1093,4e392dffd164102b036ee059,Matlasseria Rossy - Naturdescans,41.428322196006775,2.2118139266967773,Smoke Shop
