{
"type": "FeatureCollection",
"name": "venues_poblenou",
"crs": { "type": "name", "properties": { "name": "urn:ogc:def:crs:OGC:1.3:CRS84" } },
"features": [
{ "type": "Feature", "properties": { "field_1": 0, "Venues_id": "4cd5ca35dfb4a1cdbb6e5b5c", "Name": "Hotel Attica21 Barcelona Mar", "lat": 41.40534210718485, "lon": 2.2121557268989069, "category": "Building", "field_7": null }, "geometry": { "type": "Point", "coordinates": [ 2.212155726898907, 41.40534210718485 ] } },
{ "type": "Feature", "properties": { "field_1": 1, "Venues_id": "51d29781498e57f455f58510", "Name": "Pool Hotel Attica21 Barcelona Mar", "lat": 41.40538, "lon": 2.212177, "category": "Cocktail Bar", "field_7": null }, "geometry": { "type": "Point", "coordinates": [ 2.212177, 41.40538 ] } },
{ "type": "Feature", "properties": { "field_1": 2, "Venues_id": "4efef27fbe7bbcd4f2bd2081", "Name": "Cursa dels Nassos", "lat": 41.406832676996011, "lon": 2.2113290116133468, "category": "Hotel", "field_7": null }, "geometry": { "type": "Point", "coordinates": [ 2.211329011613347, 41.406832676996011 ] } },
{ "type": "Feature", "properties": { "field_1": 3, "Venues_id": "4ee3a6b84690f8893fc15cce", "Name": "Eix Estels", "lat": 41.404674082235481, "lon": 2.21199631690979, "category": "Food Truck", "field_7": null }, "geometry": { "type": "Point", "coordinates": [ 2.21199631690979, 41.404674082235481 ] } },
{ "type": "Feature", "properties": { "field_1": 4, "Venues_id": "4dda3022d4c05d50972a65a6", "Name": "Lucas Mar", "lat": 41.405368617223942, "lon": 2.2113194059848325, "category": "Gift Shop", "field_7": null }, "geometry": { "type": "Point", "coordinates": [ 2.211319405984832, 41.405368617223942 ] } },
{ "type": "Feature", "properties": { "field_1": 5, "Venues_id": "4e8aacc3722eef3e49dc6aa3", "Name": "Centro de Pilates PowerHouse", "lat": 41.404018407603949, "lon": 2.2119293674508422, "category": "Office", "field_7": null }, "geometry": { "type": "Point", "coordinates": [ 2.211929367450842, 41.404018407603949 ] } },
{ "type": "Feature", "properties": { "field_1": 6, "Venues_id": "4ce400fd77ef224b6b30467b", "Name": "Escola Grèvol", "lat": 41.404867492528325, "lon": 2.2125105195053387, "category": "Shopping Mall", "field_7": null }, "geometry": { "type": "Point", "coordinates": [ 2.212510519505339, 41.404867492528325 ] } },
{ "type": "Feature", "properties": { "field_1": 7, "Venues_id": "50374158e4b03c716c7478d2", "Name": "Entaula't", "lat": 41.405132610773578, "lon": 2.2129956190966653, "category": "Beach Bar", "field_7": null }, "geometry": { "type": "Point", "coordinates": [ 2.212995619096665, 41.405132610773578 ] } },
{ "type": "Feature", "properties": { "field_1": 8, "Venues_id": "4e4a73fe14951b66ae8e31cb", "Name": "Vanas Dive", "lat": 41.400390454252644, "lon": 2.2125938987193705, "category": "Mediterranean Restaurant", "field_7": null }, "geometry": { "type": "Point", "coordinates": [ 2.212593898719371, 41.400390454252644 ] } },
{ "type": "Feature", "properties": { "field_1": 9, "Venues_id": "4e2589eaae6035bd16f649be", "Name": "La Terrassa De El Comedor", "lat": 41.4024639, "lon": 2.21231, "category": "Beach Bar", "field_7": null }, "geometry": { "type": "Point", "coordinates": [ 2.21231, 41.4024639 ] } },
{ "type": "Feature", "properties": { "field_1": 10, "Venues_id": "4df5515752b100c2d801017c", "Name": "Relevant", "lat": 41.399020099359497, "lon": 2.2122771495543789, "category": "Office", "field_7": null }, "geometry": { "type": "Point", "coordinates": [ 2.212277149554379, 41.399020099359497 ] } },
{ "type": "Feature", "properties": { "field_1": 11, "Venues_id": "50579f04e4b06c4e2622c736", "Name": "Gaudir", "lat": 41.400761, "lon": 2.214353, "category": "Playground", "field_7": null }, "geometry": { "type": "Point", "coordinates": [ 2.214353, 41.400761 ] } },
{ "type": "Feature", "properties": { "field_1": 12, "Venues_id": "512e0e26e4b0091336ba9d28", "Name": "Quiosc Modern", "lat": 41.381932800624782, "lon": 2.171838660192877, "category": "High School", "field_7": null }, "geometry": { "type": "Point", "coordinates": [ 2.171838660192877, 41.381932800624782 ] } },
{ "type": "Feature", "properties": { "field_1": 13, "Venues_id": "4f269726e4b02a95007b5c7a", "Name": "Granja Bar Extremeño", "lat": 41.411874455684035, "lon": 2.2139322122597149, "category": "Sausage Shop", "field_7": null }, "geometry": { "type": "Point", "coordinates": [ 2.213932212259715, 41.411874455684035 ] } },
{ "type": "Feature", "properties": { "field_1": 14, "Venues_id": "4dbed966a86e0e98a21a9cfe", "Name": "Maresme Centre sport", "lat": 41.412171038672319, "lon": 2.2134471026065254, "category": "Toy \/ Game Store", "field_7": null }, "geometry": { "type": "Point", "coordinates": [ 2.213447102606525, 41.412171038672319 ] } },
{ "type": "Feature", "properties": { "field_1": 15, "Venues_id": "4e679ee7fa76f38efb318838", "Name": "Camp Municipal Del Maresme", "lat": 41.412069815099379, "lon": 2.2140680284382728, "category": "Playground", "field_7": null }, "geometry": { "type": "Point", "coordinates": [ 2.214068028438273, 41.412069815099379 ] } },
{ "type": "Feature", "properties": { "field_1": 16, "Venues_id": "4ee9dfa082315c09687f6507", "Name": "La Caixa Diagonal Mar", "lat": 41.410169804802102, "lon": 2.2139274091682979, "category": "Miscellaneous Shop", "field_7": null }, "geometry": { "type": "Point", "coordinates": [ 2.213927409168298, 41.410169804802102 ] } },
{ "type": "Feature", "properties": { "field_1": 17, "Venues_id": "5cd9d0547dc9e1002c09bb54", "Name": "Enrique Tomás JAMON-TAPAS-VINO", "lat": 41.41081, "lon": 2.21389, "category": "Breakfast Spot", "field_7": null }, "geometry": { "type": "Point", "coordinates": [ 2.21389, 41.41081 ] } },
{ "type": "Feature", "properties": { "field_1": 18, "Venues_id": "539deba3498eab4892028203", "Name": "Bar Bodega el Triangulo", "lat": 41.41009165044624, "lon": 2.212846726588575, "category": "Kids Store", "field_7": null }, "geometry": { "type": "Point", "coordinates": [ 2.212846726588575, 41.41009165044624 ] } },
{ "type": "Feature", "properties": { "field_1": 19, "Venues_id": "4f1dd669e4b04ae0859392ad", "Name": "Granja Montserrat", "lat": 41.410504680646632, "lon": 2.2136536338020076, "category": "Gym", "field_7": null }, "geometry": { "type": "Point", "coordinates": [ 2.213653633802008, 41.410504680646632 ] } },
{ "type": "Feature", "properties": { "field_1": 20, "Venues_id": "53bfbb10498e13b13a140a56", "Name": "Barça Kebab House", "lat": 41.410500338286212, "lon": 2.2131445120957194, "category": "Tapas Restaurant", "field_7": null }, "geometry": { "type": "Point", "coordinates": [ 2.213144512095719, 41.410500338286212 ] } },
{ "type": "Feature", "properties": { "field_1": 21, "Venues_id": "53d3b7a6498e572d75f90757", "Name": "Peluqueria y Estetica Cubells", "lat": 41.410093, "lon": 2.212885, "category": "Road", "field_7": null }, "geometry": { "type": "Point", "coordinates": [ 2.212885, 41.410093 ] } },
{ "type": "Feature", "properties": { "field_1": 22, "Venues_id": "4ca1ee9e79d9b1f74261c399", "Name": "Med Fitness", "lat": 41.411602876493362, "lon": 2.2136536338020076, "category": "Bakery", "field_7": null }, "geometry": { "type": "Point", "coordinates": [ 2.213653633802008, 41.411602876493362 ] } },
{ "type": "Feature", "properties": { "field_1": 23, "Venues_id": "5824e86fb04e98054fe13d55", "Name": "Okinawa Sushi", "lat": 41.410248, "lon": 2.2125757, "category": "Post Office", "field_7": null }, "geometry": { "type": "Point", "coordinates": [ 2.2125757, 41.410248 ] } },
{ "type": "Feature", "properties": { "field_1": 24, "Venues_id": "5a5227daacc5f56453c4ec16", "Name": "Vapiano", "lat": 41.410010761395945, "lon": 2.2146569677773909, "category": "Office", "field_7": null }, "geometry": { "type": "Point", "coordinates": [ 2.214656967777391, 41.410010761395945 ] } },
{ "type": "Feature", "properties": { "field_1": 25, "Venues_id": "4e1d38a4ae60cec370df36a1", "Name": "Pastisseries Vila Barcelona", "lat": 41.411557946087527, "lon": 2.2119900296246993, "category": "Bus Line", "field_7": null }, "geometry": { "type": "Point", "coordinates": [ 2.211990029624699, 41.411557946087527 ] } },
{ "type": "Feature", "properties": { "field_1": 26, "Venues_id": "4c795335bd346dcbb3fff4ef", "Name": "Tram T4 El Maresme", "lat": 41.410581761705714, "lon": 2.2155686117276083, "category": "Miscellaneous Shop", "field_7": null }, "geometry": { "type": "Point", "coordinates": [ 2.215568611727608, 41.410581761705714 ] } },
{ "type": "Feature", "properties": { "field_1": 27, "Venues_id": "4ec3d70cd5fb255ab41768eb", "Name": "Cottet Sol", "lat": 41.410709231832818, "lon": 2.2154510021209717, "category": "Bakery", "field_7": null }, "geometry": { "type": "Point", "coordinates": [ 2.215451002120972, 41.410709231832818 ] } },
{ "type": "Feature", "properties": { "field_1": 28, "Venues_id": "4f1d0db5e4b0e6badd3ee872", "Name": "Bar Triángulo", "lat": 41.410871103912605, "lon": 2.2133208988819915, "category": "Office", "field_7": null }, "geometry": { "type": "Point", "coordinates": [ 2.213320898881991, 41.410871103912605 ] } },
{ "type": "Feature", "properties": { "field_1": 29, "Venues_id": "50634951e4b0720c96abaa75", "Name": "Paco Martinez", "lat": 41.410200628563246, "lon": 2.2156421452674664, "category": "Ice Cream Shop", "field_7": null }, "geometry": { "type": "Point", "coordinates": [ 2.215642145267466, 41.410200628563246 ] } },
{ "type": "Feature", "properties": { "field_1": 30, "Venues_id": "5aa4221a3c858d71bdf3c74f", "Name": "Abbasïd Mediterranean Kebab", "lat": 41.410072, "lon": 2.215297, "category": "Office", "field_7": null }, "geometry": { "type": "Point", "coordinates": [ 2.215297, 41.410072 ] } },
{ "type": "Feature", "properties": { "field_1": 31, "Venues_id": "4c56e6b2a31176b0b068d0bc", "Name": "Clínica Dental Diagonaldent", "lat": 41.41032, "lon": 2.21365689, "category": "Professional & Other Places", "field_7": null }, "geometry": { "type": "Point", "coordinates": [ 2.21365689, 41.41032 ] } },
{ "type": "Feature", "properties": { "field_1": 32, "Venues_id": "53abf3bc498eefd89b6d74dd", "Name": "La luz en tu vida", "lat": 41.411652, "lon": 2.21422, "category": "Restaurant", "field_7": null }, "geometry": { "type": "Point", "coordinates": [ 2.21422, 41.411652 ] } },
{ "type": "Feature", "properties": { "field_1": 33, "Venues_id": "524149c193cd62168b4263eb", "Name": "Cerrajeros Barcelona Opendoors Serrallers 24h", "lat": 41.411678826930846, "lon": 2.214034795761108, "category": "Restaurant", "field_7": null }, "geometry": { "type": "Point", "coordinates": [ 2.214034795761108, 41.411678826930846 ] } },
{ "type": "Feature", "properties": { "field_1": 34, "Venues_id": "56d93ccc498ea0337a4e9441", "Name": "centre medic forum", "lat": 41.410138, "lon": 2.213597, "category": "Parking", "field_7": null }, "geometry": { "type": "Point", "coordinates": [ 2.213597, 41.410138 ] } },
{ "type": "Feature", "properties": { "field_1": 35, "Venues_id": "51cca385498ee7a32b423357", "Name": "Fruites I Verdures Diagonal", "lat": 41.410481068870347, "lon": 2.2129043623399167, "category": "Café", "field_7": null }, "geometry": { "type": "Point", "coordinates": [ 2.212904362339917, 41.410481068870347 ] } },
{ "type": "Feature", "properties": { "field_1": 36, "Venues_id": "4ffece98e4b0346121443966", "Name": "Parada Bus 2259", "lat": 41.410552, "lon": 2.215835, "category": "Coffee Shop", "field_7": null }, "geometry": { "type": "Point", "coordinates": [ 2.215835, 41.410552 ] } },
{ "type": "Feature", "properties": { "field_1": 37, "Venues_id": "4ee9b980f79057ab3f5ce9da", "Name": "Hilti Pallars", "lat": 41.411667711768018, "lon": 2.2119725933792194, "category": "Restaurant", "field_7": null }, "geometry": { "type": "Point", "coordinates": [ 2.211972593379219, 41.411667711768018 ] } },
{ "type": "Feature", "properties": { "field_1": 38, "Venues_id": "4f566f9ae4b07b61ca8f7331", "Name": "Cabina De Suicidio", "lat": 41.410523616308389, "lon": 2.2153011141338523, "category": "Building", "field_7": null }, "geometry": { "type": "Point", "coordinates": [ 2.215301114133852, 41.410523616308389 ] } },
{ "type": "Feature", "properties": { "field_1": 39, "Venues_id": "50bc644ae4b0e31954e65921", "Name": "Skyline Eventos", "lat": 41.410247802734375, "lon": 2.2129359245300293, "category": "Cupcake Shop", "field_7": null }, "geometry": { "type": "Point", "coordinates": [ 2.212935924530029, 41.410247802734375 ] } },
{ "type": "Feature", "properties": { "field_1": 40, "Venues_id": "51cdcc32498eefe164f68c40", "Name": "DiagonalDent", "lat": 41.410495534781042, "lon": 2.2131973452133984, "category": "Cosmetics Shop", "field_7": null }, "geometry": { "type": "Point", "coordinates": [ 2.213197345213398, 41.410495534781042 ] } },
{ "type": "Feature", "properties": { "field_1": 41, "Venues_id": "4e67868245dde0f9e2740e4a", "Name": "Escola Bressol Diagonal Mar", "lat": 41.410971793409075, "lon": 2.2130191061428106, "category": "Bank", "field_7": null }, "geometry": { "type": "Point", "coordinates": [ 2.213019106142811, 41.410971793409075 ] } },
{ "type": "Feature", "properties": { "field_1": 42, "Venues_id": "4d0f354c59606dcb08366d3e", "Name": "Cafe Expres", "lat": 41.412784, "lon": 2.2138636, "category": "Spanish Restaurant", "field_7": null }, "geometry": { "type": "Point", "coordinates": [ 2.2138636, 41.412784 ] } },
{ "type": "Feature", "properties": { "field_1": 43, "Venues_id": "4d44504dc3e5f04dd40d9920", "Name": "dream's", "lat": 41.411421094868807, "lon": 2.2158342766176653, "category": "Vacation Rental", "field_7": null }, "geometry": { "type": "Point", "coordinates": [ 2.215834276617665, 41.411421094868807 ] } },
{ "type": "Feature", "properties": { "field_1": 44, "Venues_id": "4d6cb2cacb7a8cfa12885379", "Name": "Granja Sierra", "lat": 41.4110909186277, "lon": 2.2157526206939604, "category": "Bank", "field_7": null }, "geometry": { "type": "Point", "coordinates": [ 2.21575262069396, 41.4110909186277 ] } },
{ "type": "Feature", "properties": { "field_1": 45, "Venues_id": "4dcacdadd16495ca5af30b28", "Name": "La Casita De Chocolate", "lat": 41.4106546, "lon": 2.2154174, "category": "General Entertainment", "field_7": null }, "geometry": { "type": "Point", "coordinates": [ 2.2154174, 41.4106546 ] } },
{ "type": "Feature", "properties": { "field_1": 46, "Venues_id": "55145a48498e9220843f99da", "Name": "Clarel", "lat": 41.411921446357788, "lon": 2.1775442586878544, "category": "Tanning Salon", "field_7": null }, "geometry": { "type": "Point", "coordinates": [ 2.177544258687854, 41.411921446357788 ] } },
{ "type": "Feature", "properties": { "field_1": 47, "Venues_id": "4d93119ad176a1cd024030f0", "Name": "BBVA Oficina", "lat": 41.41178843440396, "lon": 2.1775096713332101, "category": "Salon \/ Barbershop", "field_7": null }, "geometry": { "type": "Point", "coordinates": [ 2.17750967133321, 41.41178843440396 ] } },
{ "type": "Feature", "properties": { "field_1": 48, "Venues_id": "4c6d237946353704ac2708bc", "Name": "L'oliva", "lat": 41.411515167298731, "lon": 2.1770489043806163, "category": "Dessert Shop", "field_7": null }, "geometry": { "type": "Point", "coordinates": [ 2.177048904380616, 41.411515167298731 ] } },
{ "type": "Feature", "properties": { "field_1": 49, "Venues_id": "4ebae590dab4b503241b5096", "Name": "Cal Otilia", "lat": 41.411576804930171, "lon": 2.1770536058939087, "category": "Bike Rental \/ Bike Share", "field_7": null }, "geometry": { "type": "Point", "coordinates": [ 2.177053605893909, 41.411576804930171 ] } },
{ "type": "Feature", "properties": { "field_1": 50, "Venues_id": "4fe7542ce4b0b3b973de7570", "Name": "Wu Mart", "lat": 41.411760074714259, "lon": 2.1775114383175138, "category": "Shoe Store", "field_7": null }, "geometry": { "type": "Point", "coordinates": [ 2.177511438317514, 41.411760074714259 ] } },
{ "type": "Feature", "properties": { "field_1": 51, "Venues_id": "5a4514bc9cadd968685b7a30", "Name": "JAZZ BCN Apartments", "lat": 41.411988611525828, "lon": 2.1773260831832886, "category": "Pharmacy", "field_7": null }, "geometry": { "type": "Point", "coordinates": [ 2.177326083183289, 41.411988611525828 ] } },
{ "type": "Feature", "properties": { "field_1": 52, "Venues_id": "4eb122e49adf1abeffa27855", "Name": "ING Meridiana", "lat": 41.411779781944155, "lon": 2.1775202626065515, "category": "Health & Beauty Service", "field_7": null }, "geometry": { "type": "Point", "coordinates": [ 2.177520262606552, 41.411779781944155 ] } },
{ "type": "Feature", "properties": { "field_1": 53, "Venues_id": "4be84a6d947820a1d9b7b4db", "Name": "Llevadonas", "lat": 41.411824678464392, "lon": 2.1781345663141036, "category": "Residential Building (Apartment \/ Condo)", "field_7": null }, "geometry": { "type": "Point", "coordinates": [ 2.178134566314104, 41.411824678464392 ] } },
{ "type": "Feature", "properties": { "field_1": 54, "Venues_id": "55697c6d498ead1a6d43b756", "Name": "Hostal Ciudad Condal", "lat": 41.39334913224365, "lon": 2.1618356405877912, "category": "Miscellaneous Shop", "field_7": null }, "geometry": { "type": "Point", "coordinates": [ 2.161835640587791, 41.39334913224365 ] } },
{ "type": "Feature", "properties": { "field_1": 55, "Venues_id": "526838a411d2dffe30c9d239", "Name": "Капитана (Барселона)", "lat": 41.411865234375, "lon": 2.1767899990081787, "category": "Building", "field_7": null }, "geometry": { "type": "Point", "coordinates": [ 2.176789999008179, 41.411865234375 ] } },
{ "type": "Feature", "properties": { "field_1": 56, "Venues_id": "4cd7e8337bb06dcbaa569fb2", "Name": "Bonpreu", "lat": 41.412490452730822, "lon": 2.1763475784004536, "category": "Bakery", "field_7": null }, "geometry": { "type": "Point", "coordinates": [ 2.176347578400454, 41.412490452730822 ] } },
{ "type": "Feature", "properties": { "field_1": 57, "Venues_id": "4da6cea3ec8ea25d4ff91dca", "Name": "Solmania", "lat": 41.41228363734276, "lon": 2.1758171995808198, "category": "Bakery", "field_7": null }, "geometry": { "type": "Point", "coordinates": [ 2.17581719958082, 41.41228363734276 ] } },
{ "type": "Feature", "properties": { "field_1": 58, "Venues_id": "4eebc4e75c5c794ad02b1a1e", "Name": "Peluqueria Colors Unisex", "lat": 41.412473524630613, "lon": 2.1771891179903329, "category": "Spa", "field_7": null }, "geometry": { "type": "Point", "coordinates": [ 2.177189117990333, 41.412473524630613 ] } },
{ "type": "Feature", "properties": { "field_1": 59, "Venues_id": "5c532756c58ed7002c20dc48", "Name": "Carme 13 Xocolata I Pastissos", "lat": 41.411466, "lon": 2.176945, "category": "Candy Store", "field_7": null }, "geometry": { "type": "Point", "coordinates": [ 2.176945, 41.411466 ] } },
{ "type": "Feature", "properties": { "field_1": 60, "Venues_id": "4eef5390d5fba9d69695fe3e", "Name": "Bicing 164", "lat": 41.411797448989169, "lon": 2.1775321779560985, "category": "Café", "field_7": null }, "geometry": { "type": "Point", "coordinates": [ 2.177532177956099, 41.411797448989169 ] } },
{ "type": "Feature", "properties": { "field_1": 61, "Venues_id": "5c73f6cbd48ec1002cd5a319", "Name": "Zanco Zapateria", "lat": 41.411861, "lon": 2.177521, "category": "Parking", "field_7": null }, "geometry": { "type": "Point", "coordinates": [ 2.177521, 41.411861 ] } },
{ "type": "Feature", "properties": { "field_1": 62, "Venues_id": "4f215a261081200df2aeecce", "Name": "Albareda-Pérez", "lat": 41.411821421461489, "lon": 2.1773762863872501, "category": "Trade School", "field_7": null }, "geometry": { "type": "Point", "coordinates": [ 2.17737628638725, 41.411821421461489 ] } },
{ "type": "Feature", "properties": { "field_1": 63, "Venues_id": "5db7fee84a134b00082405c8", "Name": "cb&t", "lat": 41.412787, "lon": 2.176544, "category": "Café", "field_7": null }, "geometry": { "type": "Point", "coordinates": [ 2.176544, 41.412787 ] } },
{ "type": "Feature", "properties": { "field_1": 64, "Venues_id": "50533b7de4b017bb255bc23b", "Name": "Holland Heineken Huis", "lat": 41.411718770890047, "lon": 2.1771459253938286, "category": "Chinese Restaurant", "field_7": null }, "geometry": { "type": "Point", "coordinates": [ 2.177145925393829, 41.411718770890047 ] } },
{ "type": "Feature", "properties": { "field_1": 65, "Venues_id": "515c3db5e4b00578e8a22358", "Name": "Basar", "lat": 41.412847187631712, "lon": 2.1773714871878678, "category": "Bike Rental \/ Bike Share", "field_7": null }, "geometry": { "type": "Point", "coordinates": [ 2.177371487187868, 41.412847187631712 ] } },
{ "type": "Feature", "properties": { "field_1": 66, "Venues_id": "510c45c4e4b0809a7bed9f15", "Name": "Alguera Apartments Industria", "lat": 41.411487111840529, "lon": 2.1769188431128796, "category": "Sausage Shop", "field_7": null }, "geometry": { "type": "Point", "coordinates": [ 2.17691884311288, 41.411487111840529 ] } },
{ "type": "Feature", "properties": { "field_1": 67, "Venues_id": "4e634fb5d164ddd5e6249178", "Name": "Forn de la Cantonada", "lat": 41.4112162, "lon": 2.1768704, "category": "Bakery", "field_7": null }, "geometry": { "type": "Point", "coordinates": [ 2.1768704, 41.4112162 ] } },
{ "type": "Feature", "properties": { "field_1": 68, "Venues_id": "4d8b753bd85f3704a72d15dc", "Name": "El Petit Forn", "lat": 41.412026079513808, "lon": 2.1786864869476119, "category": "Recycling Facility", "field_7": null }, "geometry": { "type": "Point", "coordinates": [ 2.178686486947612, 41.412026079513808 ] } },
{ "type": "Feature", "properties": { "field_1": 69, "Venues_id": "4e3f827d45dd68e3275492f9", "Name": "Sant Pau Centre Terapèutic", "lat": 41.411601787469507, "lon": 2.1748039888538897, "category": "Coffee Shop", "field_7": null }, "geometry": { "type": "Point", "coordinates": [ 2.17480398885389, 41.411601787469507 ] } },
{ "type": "Feature", "properties": { "field_1": 70, "Venues_id": "4e4cddde8877d76263064e4b", "Name": "Maxidolç", "lat": 41.411777066044692, "lon": 2.1773954831898941, "category": "Student Center", "field_7": null }, "geometry": { "type": "Point", "coordinates": [ 2.177395483189894, 41.411777066044692 ] } },
{ "type": "Feature", "properties": { "field_1": 71, "Venues_id": "4d8a550e26a36ea8b3a6f2ad", "Name": "Motos Salarich", "lat": 41.412219166416307, "lon": 2.1770499419943667, "category": "Italian Restaurant", "field_7": null }, "geometry": { "type": "Point", "coordinates": [ 2.177049941994367, 41.412219166416307 ] } },
{ "type": "Feature", "properties": { "field_1": 72, "Venues_id": "4d4682ab1911a093caf9ebd8", "Name": "La Granja", "lat": 41.410885606496315, "lon": 2.1765556307270484, "category": "Spanish Restaurant", "field_7": null }, "geometry": { "type": "Point", "coordinates": [ 2.176555630727048, 41.410885606496315 ] } },
{ "type": "Feature", "properties": { "field_1": 73, "Venues_id": "4bc62d26db8fa59347e59b37", "Name": "Garatge Carles", "lat": 41.411712434701656, "lon": 2.1775442586878544, "category": "Tailor Shop", "field_7": null }, "geometry": { "type": "Point", "coordinates": [ 2.177544258687854, 41.411712434701656 ] } },
{ "type": "Feature", "properties": { "field_1": 74, "Venues_id": "52764edb11d2be974d0bad95", "Name": "Ies San Josep De Calassanç", "lat": 41.411730719792125, "lon": 2.1766420148290888, "category": "Fountain", "field_7": null }, "geometry": { "type": "Point", "coordinates": [ 2.176642014829089, 41.411730719792125 ] } },
{ "type": "Feature", "properties": { "field_1": 75, "Venues_id": "5e40294e448f0b0007be424f", "Name": "Pannia", "lat": 41.411978, "lon": 2.177731, "category": "Bakery", "field_7": null }, "geometry": { "type": "Point", "coordinates": [ 2.177731, 41.411978 ] } },
{ "type": "Feature", "properties": { "field_1": 76, "Venues_id": "4ca099ec542b224b521d07a0", "Name": "Paradis D'or", "lat": 41.41154777262765, "lon": 2.1784369219973194, "category": "Spa", "field_7": null }, "geometry": { "type": "Point", "coordinates": [ 2.178436921997319, 41.41154777262765 ] } },
{ "type": "Feature", "properties": { "field_1": 77, "Venues_id": "567c33da498e888ed040373d", "Name": "Bicing 120", "lat": 41.411734702620961, "lon": 2.1775970501117299, "category": "Medical Center", "field_7": null }, "geometry": { "type": "Point", "coordinates": [ 2.17759705011173, 41.411734702620961 ] } },
{ "type": "Feature", "properties": { "field_1": 78, "Venues_id": "5bdd870681635b002c3a9154", "Name": "Embutits i Formatges Xavi Gracia", "lat": 41.41214, "lon": 2.177903, "category": "Cocktail Bar", "field_7": null }, "geometry": { "type": "Point", "coordinates": [ 2.177903, 41.41214 ] } },
{ "type": "Feature", "properties": { "field_1": 79, "Venues_id": "5bd3376db5cb76002c0cf73d", "Name": "Vivari", "lat": 41.411713714636633, "lon": 2.1784927686223945, "category": "Park", "field_7": null }, "geometry": { "type": "Point", "coordinates": [ 2.178492768622394, 41.411713714636633 ] } },
{ "type": "Feature", "properties": { "field_1": 80, "Venues_id": "5c4e10c4acc5f5002c31408c", "Name": "Punto De Reciclaje", "lat": 41.411265, "lon": 2.178884, "category": "Café", "field_7": null }, "geometry": { "type": "Point", "coordinates": [ 2.178884, 41.411265 ] } },
{ "type": "Feature", "properties": { "field_1": 81, "Venues_id": "5c45699304d1ae002cd37f88", "Name": "la medi", "lat": 41.411465, "lon": 2.176796, "category": "Café", "field_7": null }, "geometry": { "type": "Point", "coordinates": [ 2.176796, 41.411465 ] } },
{ "type": "Feature", "properties": { "field_1": 82, "Venues_id": "4d024c400dae3704091dc942", "Name": "Escola Grimm-Virolai", "lat": 41.412500123285142, "lon": 2.1792000191766681, "category": "Bed & Breakfast", "field_7": null }, "geometry": { "type": "Point", "coordinates": [ 2.179200019176668, 41.412500123285142 ] } },
{ "type": "Feature", "properties": { "field_1": 83, "Venues_id": "5c5c99419ef8ef002c1fee84", "Name": "Pizza To Rico", "lat": 41.412177, "lon": 2.177833, "category": "Arcade", "field_7": null }, "geometry": { "type": "Point", "coordinates": [ 2.177833, 41.412177 ] } },
{ "type": "Feature", "properties": { "field_1": 84, "Venues_id": "4d83664661676dcb872d5ae4", "Name": "O Toxo Verde", "lat": 41.411554232355485, "lon": 2.1784132134957219, "category": "General Entertainment", "field_7": null }, "geometry": { "type": "Point", "coordinates": [ 2.178413213495722, 41.411554232355485 ] } },
{ "type": "Feature", "properties": { "field_1": 85, "Venues_id": "5c990a98fc9e94002c1cb57b", "Name": "Arreglos De Ropa Guiller", "lat": 41.411003, "lon": 2.176852, "category": "Café", "field_7": null }, "geometry": { "type": "Point", "coordinates": [ 2.176852, 41.411003 ] } },
{ "type": "Feature", "properties": { "field_1": 86, "Venues_id": "5c44d7a7f96b2c002cdae106", "Name": "Fuente De La Esquina", "lat": 41.411272, "lon": 2.178896, "category": "Bar", "field_7": null }, "geometry": { "type": "Point", "coordinates": [ 2.178896, 41.411272 ] } },
{ "type": "Feature", "properties": { "field_1": 87, "Venues_id": "565ee842498e5954cc0a00d5", "Name": "Mon Pa", "lat": 41.412143707275391, "lon": 2.177614688873291, "category": "Bar", "field_7": null }, "geometry": { "type": "Point", "coordinates": [ 2.177614688873291, 41.412143707275391 ] } },
{ "type": "Feature", "properties": { "field_1": 88, "Venues_id": "53347996498e72792bc91747", "Name": "Oak spa", "lat": 41.411482, "lon": 2.178406, "category": "Residential Building (Apartment \/ Condo)", "field_7": null }, "geometry": { "type": "Point", "coordinates": [ 2.178406, 41.411482 ] } },
{ "type": "Feature", "properties": { "field_1": 89, "Venues_id": "4d791d99ece5a1cdeb45a0a4", "Name": "Llevadones", "lat": 41.411656123737394, "lon": 2.1780001866620395, "category": "Salon \/ Barbershop", "field_7": null }, "geometry": { "type": "Point", "coordinates": [ 2.17800018666204, 41.411656123737394 ] } },
{ "type": "Feature", "properties": { "field_1": 90, "Venues_id": "4d795981ceaa224b3916f870", "Name": "Moorea", "lat": 41.412647794521632, "lon": 2.178430264964168, "category": "Wine Bar", "field_7": null }, "geometry": { "type": "Point", "coordinates": [ 2.178430264964168, 41.412647794521632 ] } },
{ "type": "Feature", "properties": { "field_1": 91, "Venues_id": "4ead8b94e5fad025f82b80bf", "Name": "Plaça De Les Heroines De Girona", "lat": 41.412120974139967, "lon": 2.1788043527694478, "category": "Bar", "field_7": null }, "geometry": { "type": "Point", "coordinates": [ 2.178804352769448, 41.412120974139967 ] } },
{ "type": "Feature", "properties": { "field_1": 92, "Venues_id": "5cb5636306fb60002c7a0faf", "Name": "Croissanterie", "lat": 41.411113, "lon": 2.176611, "category": "Bus Line", "field_7": null }, "geometry": { "type": "Point", "coordinates": [ 2.176611, 41.411113 ] } },
{ "type": "Feature", "properties": { "field_1": 93, "Venues_id": "4e5f5269ae60c16e993fe84b", "Name": "Scotty's Blues", "lat": 41.411459514687991, "lon": 2.1761813015331795, "category": "Chinese Restaurant", "field_7": null }, "geometry": { "type": "Point", "coordinates": [ 2.176181301533179, 41.411459514687991 ] } },
{ "type": "Feature", "properties": { "field_1": 94, "Venues_id": "55915591498ef8e4088f7a1e", "Name": "pack&flat apart", "lat": 41.411741495593333, "lon": 2.178518763027522, "category": "Restaurant", "field_7": null }, "geometry": { "type": "Point", "coordinates": [ 2.178518763027522, 41.411741495593333 ] } },
{ "type": "Feature", "properties": { "field_1": 95, "Venues_id": "56ffe24b498eb6f0aca5061e", "Name": "Espai amb Cor", "lat": 41.412508466841686, "lon": 2.1770019503713556, "category": "Tech Startup", "field_7": null }, "geometry": { "type": "Point", "coordinates": [ 2.177001950371356, 41.412508466841686 ] } },
{ "type": "Feature", "properties": { "field_1": 96, "Venues_id": "5c640b7e1c9e2e0025bf1188", "Name": "Xcape Room", "lat": 41.412373, "lon": 2.1763403, "category": "Medical Center", "field_7": null }, "geometry": { "type": "Point", "coordinates": [ 2.1763403, 41.412373 ] } },
{ "type": "Feature", "properties": { "field_1": 97, "Venues_id": "4dd25fde45dd9197faf37d77", "Name": "Savory Express", "lat": 41.411211397547227, "lon": 2.1762052969009797, "category": "Music Store", "field_7": null }, "geometry": { "type": "Point", "coordinates": [ 2.17620529690098, 41.411211397547227 ] } },
{ "type": "Feature", "properties": { "field_1": 98, "Venues_id": "4e7e56ab9adf78c3ab8ffe03", "Name": "Bar 368", "lat": 41.4117768, "lon": 2.1780825, "category": "Residential Building (Apartment \/ Condo)", "field_7": null }, "geometry": { "type": "Point", "coordinates": [ 2.1780825, 41.4117768 ] } },
{ "type": "Feature", "properties": { "field_1": 99, "Venues_id": "4c4981b8a3ace21e4060af3b", "Name": "Villaverde", "lat": 41.410905159249332, "lon": 2.1765892245248168, "category": "Other Great Outdoors", "field_7": null }, "geometry": { "type": "Point", "coordinates": [ 2.176589224524817, 41.410905159249332 ] } },
{ "type": "Feature", "properties": { "field_1": 100, "Venues_id": "4f60ebcee4b0533a6f6f2626", "Name": "Barcelonahomee", "lat": 41.411456, "lon": 2.176857, "category": "Miscellaneous Shop", "field_7": null }, "geometry": { "type": "Point", "coordinates": [ 2.176857, 41.411456 ] } },
{ "type": "Feature", "properties": { "field_1": 101, "Venues_id": "516fdf63f2e78c13aee4e35b", "Name": "Christopher Velasco Stylistes", "lat": 41.411666902798409, "lon": 2.1773090976424401, "category": "Laundry Service", "field_7": null }, "geometry": { "type": "Point", "coordinates": [ 2.17730909764244, 41.411666902798409 ] } },
{ "type": "Feature", "properties": { "field_1": 102, "Venues_id": "4fbd323ee4b0d314f1dde5dd", "Name": "Jalisco", "lat": 41.411341, "lon": 2.176631, "category": "Radio Station", "field_7": null }, "geometry": { "type": "Point", "coordinates": [ 2.176631, 41.411341 ] } },
{ "type": "Feature", "properties": { "field_1": 103, "Venues_id": "4ec371b0b8f7c5f293dc0307", "Name": "Bodega Montferry", "lat": 41.411605, "lon": 2.176248, "category": "Tapas Restaurant", "field_7": null }, "geometry": { "type": "Point", "coordinates": [ 2.176248, 41.411605 ] } },
{ "type": "Feature", "properties": { "field_1": 104, "Venues_id": "4ea1c1239911d5eed5e0a053", "Name": "Bus 0212", "lat": 41.411483778011643, "lon": 2.176910766428545, "category": "Plaza", "field_7": null }, "geometry": { "type": "Point", "coordinates": [ 2.176910766428545, 41.411483778011643 ] } },
{ "type": "Feature", "properties": { "field_1": 105, "Venues_id": "5b33972df00a70002c0ec985", "Name": "Mala Jianghu", "lat": 41.41142, "lon": 2.178396, "category": "Road", "field_7": null }, "geometry": { "type": "Point", "coordinates": [ 2.178396, 41.41142 ] } },
{ "type": "Feature", "properties": { "field_1": 106, "Venues_id": "4e71b6ccd4c0f5c14960e0a3", "Name": "Restaurante Mora", "lat": 41.411716323441325, "lon": 2.1764980414177537, "category": "Bar", "field_7": null }, "geometry": { "type": "Point", "coordinates": [ 2.176498041417754, 41.411716323441325 ] } },
{ "type": "Feature", "properties": { "field_1": 107, "Venues_id": "56b39537498eb607bdbd98d8", "Name": "thethings.io", "lat": 41.411353, "lon": 2.177899, "category": "Spiritual Center", "field_7": null }, "geometry": { "type": "Point", "coordinates": [ 2.177899, 41.411353 ] } },
{ "type": "Feature", "properties": { "field_1": 108, "Venues_id": "4c6e4389a437224bdd6d2fb1", "Name": "Centre d'Investigacio de Medicaments (CIM)", "lat": 41.411679749154111, "lon": 2.1762196941277971, "category": "Dance Studio", "field_7": null }, "geometry": { "type": "Point", "coordinates": [ 2.176219694127797, 41.411679749154111 ] } },
{ "type": "Feature", "properties": { "field_1": 109, "Venues_id": "54469292498edf77db3a870b", "Name": "Gymusic, Escola De Musica", "lat": 41.412052, "lon": 2.177845, "category": "Non-Profit", "field_7": null }, "geometry": { "type": "Point", "coordinates": [ 2.177845, 41.412052 ] } },
{ "type": "Feature", "properties": { "field_1": 110, "Venues_id": "58cc3dee005a0f0582816118", "Name": "Airbnb Ariel & Liza", "lat": 41.4123, "lon": 2.1786444, "category": "General Entertainment", "field_7": null }, "geometry": { "type": "Point", "coordinates": [ 2.1786444, 41.4123 ] } },
{ "type": "Feature", "properties": { "field_1": 111, "Venues_id": "51c5c35e498e5479a00e7593", "Name": "Carrer De La Independencia", "lat": 41.409931275528109, "lon": 2.1803470889465619, "category": "Coworking Space", "field_7": null }, "geometry": { "type": "Point", "coordinates": [ 2.180347088946562, 41.409931275528109 ] } },
{ "type": "Feature", "properties": { "field_1": 112, "Venues_id": "4f7ffca8e4b0a458b9866ca0", "Name": "Euro Basar Angel", "lat": 41.411792635950363, "lon": 2.1773042984502187, "category": "Restaurant", "field_7": null }, "geometry": { "type": "Point", "coordinates": [ 2.177304298450219, 41.411792635950363 ] } },
{ "type": "Feature", "properties": { "field_1": 113, "Venues_id": "4ec6954361af9e142ea04b9a", "Name": "Tintorería Felip", "lat": 41.411864961774661, "lon": 2.1774290776142129, "category": "Nail Salon", "field_7": null }, "geometry": { "type": "Point", "coordinates": [ 2.177429077614213, 41.411864961774661 ] } },
{ "type": "Feature", "properties": { "field_1": 114, "Venues_id": "51a5d9b6498e44cabb163836", "Name": "Telefónica Sant Pau TdE", "lat": 41.411696231499093, "lon": 2.1773042984502187, "category": "Medical Center", "field_7": null }, "geometry": { "type": "Point", "coordinates": [ 2.177304298450219, 41.411696231499093 ] } },
{ "type": "Feature", "properties": { "field_1": 115, "Venues_id": "513d8d4a5262e60c794d0b93", "Name": "BAR LUMBRALES", "lat": 41.411610432730292, "lon": 2.1770095825195308, "category": "Coffee Shop", "field_7": null }, "geometry": { "type": "Point", "coordinates": [ 2.177009582519531, 41.411610432730292 ] } },
{ "type": "Feature", "properties": { "field_1": 116, "Venues_id": "4b656a02f964a520deef2ae3", "Name": "Plaça d'en Joanic (Plaza del Joanic)", "lat": 41.405930109258975, "lon": 2.1629762343225787, "category": "Dry Cleaner", "field_7": null }, "geometry": { "type": "Point", "coordinates": [ 2.162976234322579, 41.405930109258975 ] } },
{ "type": "Feature", "properties": { "field_1": 117, "Venues_id": "500e8c32e4b0e5847ad4834f", "Name": "Carrer Dos De Maig", "lat": 41.41132975525462, "lon": 2.1761525071086978, "category": "Sporting Goods Shop", "field_7": null }, "geometry": { "type": "Point", "coordinates": [ 2.176152507108698, 41.41132975525462 ] } },
{ "type": "Feature", "properties": { "field_1": 118, "Venues_id": "4f19f7f7e4b064e65a763b9b", "Name": "bar villalba", "lat": 41.41163956539517, "lon": 2.1763348721080611, "category": "Supermarket", "field_7": null }, "geometry": { "type": "Point", "coordinates": [ 2.176334872108061, 41.41163956539517 ] } },
{ "type": "Feature", "properties": { "field_1": 119, "Venues_id": "5668a9c2498ef64651a052c1", "Name": "Dianètica i Cienciologia", "lat": 41.411258561347417, "lon": 2.1769251638809242, "category": "Breakfast Spot", "field_7": null }, "geometry": { "type": "Point", "coordinates": [ 2.176925163880924, 41.411258561347417 ] } },
{ "type": "Feature", "properties": { "field_1": 120, "Venues_id": "4d7951f57418a14349adb85b", "Name": "Escuela De Baile Rocio Gomez", "lat": 41.4115388, "lon": 2.17790665, "category": "Arts & Crafts Store", "field_7": null }, "geometry": { "type": "Point", "coordinates": [ 2.17790665, 41.4115388 ] } },
{ "type": "Feature", "properties": { "field_1": 121, "Venues_id": "5280a4ec11d2fe39ac11ffc1", "Name": "abd Associacio Benestar I Desenvolupament", "lat": 41.412593374472941, "lon": 2.1775490579056496, "category": "Bed & Breakfast", "field_7": null }, "geometry": { "type": "Point", "coordinates": [ 2.17754905790565, 41.412593374472941 ] } },
{ "type": "Feature", "properties": { "field_1": 122, "Venues_id": "4eeb96d68b814fef89c699f6", "Name": "Fiesta Veneciana De Navidad BCNDM", "lat": 41.411567409376353, "lon": 2.1758405686904001, "category": "Nail Salon", "field_7": null }, "geometry": { "type": "Point", "coordinates": [ 2.1758405686904, 41.411567409376353 ] } },
{ "type": "Feature", "properties": { "field_1": 123, "Venues_id": "54d9ec35498e40348d7599e8", "Name": "Tropop", "lat": 41.412622, "lon": 2.176282, "category": "Bus Line", "field_7": null }, "geometry": { "type": "Point", "coordinates": [ 2.176282, 41.412622 ] } },
{ "type": "Feature", "properties": { "field_1": 124, "Venues_id": "4e36b357d22d86185a78abe0", "Name": "O'Casiñas", "lat": 41.410869, "lon": 2.177222, "category": "Coworking Space", "field_7": null }, "geometry": { "type": "Point", "coordinates": [ 2.177222, 41.410869 ] } },
{ "type": "Feature", "properties": { "field_1": 125, "Venues_id": "4dccefa0fa7664b7c681ee59", "Name": "Ingepag", "lat": 41.41184260308551, "lon": 2.1775778532231604, "category": "Professional & Other Places", "field_7": null }, "geometry": { "type": "Point", "coordinates": [ 2.17757785322316, 41.41184260308551 ] } },
{ "type": "Feature", "properties": { "field_1": 126, "Venues_id": "51dc360c498e7cc85a3db44b", "Name": "Gaudí peluquería", "lat": 41.41168212890625, "lon": 2.1764631271362305, "category": "Paper \/ Office Supplies Store", "field_7": null }, "geometry": { "type": "Point", "coordinates": [ 2.17646312713623, 41.41168212890625 ] } },
{ "type": "Feature", "properties": { "field_1": 127, "Venues_id": "4e5367a381dc6e249dd989a1", "Name": "FIART Centre de fisioteràpia i podologia", "lat": 41.411377087268768, "lon": 2.1764302253723145, "category": "Optical Shop", "field_7": null }, "geometry": { "type": "Point", "coordinates": [ 2.176430225372314, 41.411377087268768 ] } },
{ "type": "Feature", "properties": { "field_1": 128, "Venues_id": "5328110f11d268d02575d8bc", "Name": "La Bona Taula", "lat": 41.412365534771723, "lon": 2.1779042014417764, "category": "Cocktail Bar", "field_7": null }, "geometry": { "type": "Point", "coordinates": [ 2.177904201441776, 41.412365534771723 ] } },
{ "type": "Feature", "properties": { "field_1": 129, "Venues_id": "56557e8138fa7003824d1fa9", "Name": "Lavandería Bugaderia Autoservei", "lat": 41.412021636962891, "lon": 2.17812180519104, "category": "Hospital", "field_7": null }, "geometry": { "type": "Point", "coordinates": [ 2.17812180519104, 41.412021636962891 ] } },
{ "type": "Feature", "properties": { "field_1": 130, "Venues_id": "530e31b3498e72fda3164e39", "Name": "stand up surf", "lat": 41.412648, "lon": 2.177034, "category": "Breakfast Spot", "field_7": null }, "geometry": { "type": "Point", "coordinates": [ 2.177034, 41.412648 ] } },
{ "type": "Feature", "properties": { "field_1": 131, "Venues_id": "4f855a44e4b019ac20854ad1", "Name": "Bonpreu", "lat": 41.407314843496671, "lon": 2.1688798289324041, "category": "Office", "field_7": null }, "geometry": { "type": "Point", "coordinates": [ 2.168879828932404, 41.407314843496671 ] } },
{ "type": "Feature", "properties": { "field_1": 132, "Venues_id": "4f7367fbe4b043e3bc810b65", "Name": "corcega 661", "lat": 41.41100636922922, "lon": 2.1775970501117299, "category": "Hardware Store", "field_7": null }, "geometry": { "type": "Point", "coordinates": [ 2.17759705011173, 41.41100636922922 ] } },
{ "type": "Feature", "properties": { "field_1": 133, "Venues_id": "4fe4838ae4b0784c93bf0b84", "Name": "te&la", "lat": 41.412380218505859, "lon": 2.1778290271759033, "category": "Hotel", "field_7": null }, "geometry": { "type": "Point", "coordinates": [ 2.177829027175903, 41.412380218505859 ] } },
{ "type": "Feature", "properties": { "field_1": 134, "Venues_id": "4fce486be4b0349ae319678f", "Name": "Barcelona House Experience", "lat": 41.411336406326683, "lon": 2.1764260548847094, "category": "Park", "field_7": null }, "geometry": { "type": "Point", "coordinates": [ 2.176426054884709, 41.411336406326683 ] } },
{ "type": "Feature", "properties": { "field_1": 135, "Venues_id": "514b0013830201e4d301de56", "Name": "ÀNGELS I Perfumeria i Saló de bellesa", "lat": 41.411280530280919, "lon": 2.1769559383392334, "category": "Gym Pool", "field_7": null }, "geometry": { "type": "Point", "coordinates": [ 2.176955938339233, 41.411280530280919 ] } },
{ "type": "Feature", "properties": { "field_1": 136, "Venues_id": "4f5125dee4b0b5f86910d7eb", "Name": "Tmb 0224. Parada Bus", "lat": 41.411137, "lon": 2.177131, "category": "Dog Run", "field_7": null }, "geometry": { "type": "Point", "coordinates": [ 2.177131, 41.411137 ] } },
{ "type": "Feature", "properties": { "field_1": 137, "Venues_id": "4e8c568ee5fa774802dce7db", "Name": "Intelsa", "lat": 41.411375776001755, "lon": 2.1788784609273519, "category": "Bakery", "field_7": null }, "geometry": { "type": "Point", "coordinates": [ 2.178878460927352, 41.411375776001755 ] } },
{ "type": "Feature", "properties": { "field_1": 138, "Venues_id": "4e1356af1f6e671dd9f8b4d0", "Name": "Hogar Dulce Hogar", "lat": 41.411609, "lon": 2.177089, "category": "Café", "field_7": null }, "geometry": { "type": "Point", "coordinates": [ 2.177089, 41.411609 ] } },
{ "type": "Feature", "properties": { "field_1": 139, "Venues_id": "4d5285f4bd6ff04d4299fc0c", "Name": "Copy Art", "lat": 41.411623180697745, "lon": 2.1774146800007221, "category": "Pool", "field_7": null }, "geometry": { "type": "Point", "coordinates": [ 2.177414680000722, 41.411623180697745 ] } },
{ "type": "Feature", "properties": { "field_1": 140, "Venues_id": "4f268b83e4b06176465c0a68", "Name": "Òptica Sant pau", "lat": 41.411792635950363, "lon": 2.1773762863872501, "category": "Residential Building (Apartment \/ Condo)", "field_7": null }, "geometry": { "type": "Point", "coordinates": [ 2.17737628638725, 41.411792635950363 ] } },
{ "type": "Feature", "properties": { "field_1": 141, "Venues_id": "51f2fa4b498e3422638c962e", "Name": "Mojito's Lounge Club", "lat": 41.411741672759341, "lon": 2.1772275114442272, "category": "Mediterranean Restaurant", "field_7": null }, "geometry": { "type": "Point", "coordinates": [ 2.177227511444227, 41.411741672759341 ] } },
{ "type": "Feature", "properties": { "field_1": 142, "Venues_id": "4f8fe43be4b03376fcfcaac8", "Name": "Servicio Medicina Nuclear Vall d'Hebron", "lat": 41.411040948562736, "lon": 2.1767619930235078, "category": "Other Great Outdoors", "field_7": null }, "geometry": { "type": "Point", "coordinates": [ 2.176761993023508, 41.411040948562736 ] } },
{ "type": "Feature", "properties": { "field_1": 143, "Venues_id": "4f845162e4b07ae141509ff0", "Name": "El Raco de la Merce", "lat": 41.411003112792969, "lon": 2.1768853664398193, "category": "Bus Stop", "field_7": null }, "geometry": { "type": "Point", "coordinates": [ 2.176885366439819, 41.411003112792969 ] } },
{ "type": "Feature", "properties": { "field_1": 144, "Venues_id": "52cbd92d498e6fd190820fa1", "Name": "Lemonade Stand", "lat": 41.412574768066406, "lon": 2.1775319576263428, "category": "Cosmetics Shop", "field_7": null }, "geometry": { "type": "Point", "coordinates": [ 2.177531957626343, 41.412574768066406 ] } },
{ "type": "Feature", "properties": { "field_1": 145, "Venues_id": "4fabcb5ee4b0d35ca48ae4d6", "Name": "Ortopedia Porta", "lat": 41.412865201343827, "lon": 2.1767475956232989, "category": "Spanish Restaurant", "field_7": null }, "geometry": { "type": "Point", "coordinates": [ 2.176747595623299, 41.412865201343827 ] } },
{ "type": "Feature", "properties": { "field_1": 146, "Venues_id": "4adcda4cf964a520cf3f21e3", "Name": "Vincci Maritimo", "lat": 41.408165711404287, "lon": 2.2120795324039353, "category": "Hotel", "field_7": null }, "geometry": { "type": "Point", "coordinates": [ 2.212079532403935, 41.408165711404287 ] } },
{ "type": "Feature", "properties": { "field_1": 147, "Venues_id": "4d3c182605b8721e4b4c8937", "Name": "Parque de Diagonal Mar", "lat": 41.407426179983943, "lon": 2.2147750854492188, "category": "Historic Site", "field_7": null }, "geometry": { "type": "Point", "coordinates": [ 2.214775085449219, 41.407426179983943 ] } },
{ "type": "Feature", "properties": { "field_1": 148, "Venues_id": "4e2b02fc8877b69d49db6c14", "Name": "Piscina Margherita", "lat": 41.407978, "lon": 2.212653, "category": "Café", "field_7": null }, "geometry": { "type": "Point", "coordinates": [ 2.212653, 41.407978 ] } },
{ "type": "Feature", "properties": { "field_1": 149, "Venues_id": "4ff9ee5ce4b0f33163e4b1d1", "Name": "Area Perros Diagonal Mar", "lat": 41.407419332167208, "lon": 2.2132741934949185, "category": "Housing Development", "field_7": null }, "geometry": { "type": "Point", "coordinates": [ 2.213274193494918, 41.407419332167208 ] } },
{ "type": "Feature", "properties": { "field_1": 150, "Venues_id": "4d88539f5ecdf04df99e938a", "Name": "Bar Avenida", "lat": 41.410297979333826, "lon": 2.2126400470733643, "category": "Toy \/ Game Store", "field_7": null }, "geometry": { "type": "Point", "coordinates": [ 2.212640047073364, 41.410297979333826 ] } },
{ "type": "Feature", "properties": { "field_1": 151, "Venues_id": "4e380dae6284fcf739a19389", "Name": "Piscina Llull 350-360", "lat": 41.408259314042766, "lon": 2.2122408528697344, "category": "Bank", "field_7": null }, "geometry": { "type": "Point", "coordinates": [ 2.212240852869734, 41.408259314042766 ] } },
{ "type": "Feature", "properties": { "field_1": 152, "Venues_id": "50cc6998498ee21acf541e8f", "Name": "Illa del cel", "lat": 41.40688197200911, "lon": 2.2132549814122773, "category": "Building", "field_7": null }, "geometry": { "type": "Point", "coordinates": [ 2.213254981412277, 41.40688197200911 ] } },
{ "type": "Feature", "properties": { "field_1": 153, "Venues_id": "4e1b509e88777d13d043d1c0", "Name": "Restaurante Jardi De Mar", "lat": 41.408230501223123, "lon": 2.2121262859041577, "category": "Bar", "field_7": null }, "geometry": { "type": "Point", "coordinates": [ 2.212126285904158, 41.408230501223123 ] } },
{ "type": "Feature", "properties": { "field_1": 154, "Venues_id": "4ba151f9f964a52048ac37e3", "Name": "Llull322.324", "lat": 41.40848248537538, "lon": 2.2126594109047941, "category": "General College & University", "field_7": null }, "geometry": { "type": "Point", "coordinates": [ 2.212659410904794, 41.40848248537538 ] } },
{ "type": "Feature", "properties": { "field_1": 155, "Venues_id": "51c54c24498ea995461ef90b", "Name": "Carrer De Josep Pla", "lat": 41.408440497232526, "lon": 2.21539237573415, "category": "Other Great Outdoors", "field_7": null }, "geometry": { "type": "Point", "coordinates": [ 2.21539237573415, 41.408440497232526 ] } },
{ "type": "Feature", "properties": { "field_1": 156, "Venues_id": "5734baf3cd10d4113c6f74a0", "Name": "Parada Bus 2268", "lat": 41.408295, "lon": 2.2119443, "category": "Historic Site", "field_7": null }, "geometry": { "type": "Point", "coordinates": [ 2.2119443, 41.408295 ] } },
{ "type": "Feature", "properties": { "field_1": 157, "Venues_id": "54a1a6f8498ecbbfdba8a64b", "Name": "Inglot", "lat": 41.409666406805357, "lon": 2.2138649690263676, "category": "Bank", "field_7": null }, "geometry": { "type": "Point", "coordinates": [ 2.213864969026368, 41.409666406805357 ] } },
{ "type": "Feature", "properties": { "field_1": 158, "Venues_id": "50661095e4b094f28a50a90e", "Name": "Please Plats", "lat": 41.406912819829522, "lon": 2.2117372527142978, "category": "Gourmet Shop", "field_7": null }, "geometry": { "type": "Point", "coordinates": [ 2.211737252714298, 41.406912819829522 ] } },
{ "type": "Feature", "properties": { "field_1": 159, "Venues_id": "4bdee47bfe0e62b599070606", "Name": "Rent Top Apartments", "lat": 41.405929439526965, "lon": 2.2141313552856445, "category": "Residential Building (Apartment \/ Condo)", "field_7": null }, "geometry": { "type": "Point", "coordinates": [ 2.214131355285645, 41.405929439526965 ] } },
{ "type": "Feature", "properties": { "field_1": 160, "Venues_id": "532d6295498e0d334187393a", "Name": "Torre de les Aigües del Poblenou", "lat": 41.40593318572332, "lon": 2.2123376139801754, "category": "Bank", "field_7": null }, "geometry": { "type": "Point", "coordinates": [ 2.212337613980175, 41.40593318572332 ] } },
{ "type": "Feature", "properties": { "field_1": 161, "Venues_id": "4d56687bfb65236a541705b4", "Name": "Bar La Chimenea", "lat": 41.406491248100188, "lon": 2.2119862935560359, "category": "Moving Target", "field_7": null }, "geometry": { "type": "Point", "coordinates": [ 2.211986293556036, 41.406491248100188 ] } },
{ "type": "Feature", "properties": { "field_1": 162, "Venues_id": "50814c33e4b0d5064a27ccdb", "Name": "Межгалактическая Таверна 2", "lat": 41.409732242027715, "lon": 2.21323576933781, "category": "Coffee Shop", "field_7": null }, "geometry": { "type": "Point", "coordinates": [ 2.21323576933781, 41.409732242027715 ] } },
{ "type": "Feature", "properties": { "field_1": 163, "Venues_id": "4f143d39e4b07e9ecd2fa92f", "Name": "Sala Play Station", "lat": 41.407609769691938, "lon": 2.2125201253872615, "category": "Tapas Restaurant", "field_7": null }, "geometry": { "type": "Point", "coordinates": [ 2.212520125387262, 41.407609769691938 ] } },
{ "type": "Feature", "properties": { "field_1": 164, "Venues_id": "5cd962750802d400398466b8", "Name": "Eurekakids Diagonal Mar", "lat": 41.409965, "lon": 2.21416, "category": "Playground", "field_7": null }, "geometry": { "type": "Point", "coordinates": [ 2.21416, 41.409965 ] } },
{ "type": "Feature", "properties": { "field_1": 165, "Venues_id": "4d94eb283048b1f734403c64", "Name": "SabadellAtlántico, BS Diagonal Mar", "lat": 41.409104000777006, "lon": 2.2149868961423635, "category": "Candy Store", "field_7": null }, "geometry": { "type": "Point", "coordinates": [ 2.214986896142364, 41.409104000777006 ] } },
{ "type": "Feature", "properties": { "field_1": 166, "Venues_id": "4d85dc315091370417549f5b", "Name": "Illa del Bosc (Diagonal Mar)", "lat": 41.409271722401257, "lon": 2.2128926217783982, "category": "Office", "field_7": null }, "geometry": { "type": "Point", "coordinates": [ 2.212892621778398, 41.409271722401257 ] } },
{ "type": "Feature", "properties": { "field_1": 167, "Venues_id": "4fc87307e4b011cce4ba2eef", "Name": "La Colmena", "lat": 41.406524, "lon": 2.211905, "category": "Ice Cream Shop", "field_7": null }, "geometry": { "type": "Point", "coordinates": [ 2.211905, 41.406524 ] } },
{ "type": "Feature", "properties": { "field_1": 168, "Venues_id": "4f83e8f0e4b072142dc6bdc1", "Name": "Torre de las Aguas del Besós", "lat": 41.405917153433094, "lon": 2.2126682831457125, "category": "Bar", "field_7": null }, "geometry": { "type": "Point", "coordinates": [ 2.212668283145713, 41.405917153433094 ] } },
{ "type": "Feature", "properties": { "field_1": 169, "Venues_id": "4d94c96c1231b60c1e1e82a1", "Name": "SabadellAtlántico, BS Poble Nou", "lat": 41.409287, "lon": 2.215509, "category": "General Entertainment", "field_7": null }, "geometry": { "type": "Point", "coordinates": [ 2.215509, 41.409287 ] } },
{ "type": "Feature", "properties": { "field_1": 170, "Venues_id": "4e3a882462846d37888b644f", "Name": "L'hort D'osona", "lat": 41.406025743397585, "lon": 2.2126594109047941, "category": "Asian Restaurant", "field_7": null }, "geometry": { "type": "Point", "coordinates": [ 2.212659410904794, 41.406025743397585 ] } },
{ "type": "Feature", "properties": { "field_1": 171, "Venues_id": "51693ea8e4b065db53bc5d33", "Name": "Appartment Joseph Pla", "lat": 41.409281646273833, "lon": 2.215195443037584, "category": "Italian Restaurant", "field_7": null }, "geometry": { "type": "Point", "coordinates": [ 2.215195443037584, 41.409281646273833 ] } },
{ "type": "Feature", "properties": { "field_1": 172, "Venues_id": "4f8df6bfe4b019b496f5432c", "Name": "#el_leonnegro", "lat": 41.408617110123799, "lon": 2.211449146270752, "category": "General Entertainment", "field_7": null }, "geometry": { "type": "Point", "coordinates": [ 2.211449146270752, 41.408617110123799 ] } },
{ "type": "Feature", "properties": { "field_1": 173, "Venues_id": "4c4c886f42b4d13a0aba3f80", "Name": "Keric", "lat": 41.410024209924494, "lon": 2.212164709117137, "category": "Café", "field_7": null }, "geometry": { "type": "Point", "coordinates": [ 2.212164709117137, 41.410024209924494 ] } },
{ "type": "Feature", "properties": { "field_1": 174, "Venues_id": "4dfc8d06a809d61e2fc020dc", "Name": "Area de Joc Infantil (Diagonal 42)", "lat": 41.409995021778151, "lon": 2.2127794849716578, "category": "Korean Restaurant", "field_7": null }, "geometry": { "type": "Point", "coordinates": [ 2.212779484971658, 41.409995021778151 ] } },
{ "type": "Feature", "properties": { "field_1": 175, "Venues_id": "5bb8dc6e89b06a00390cce44", "Name": "mas que dulce", "lat": 41.409279, "lon": 2.212846, "category": "Chinese Restaurant", "field_7": null }, "geometry": { "type": "Point", "coordinates": [ 2.212846, 41.409279 ] } },
{ "type": "Feature", "properties": { "field_1": 176, "Venues_id": "4e98796561af7d268f4ac481", "Name": "Les Termes", "lat": 41.409014624605796, "lon": 2.2116556041988011, "category": "Men's Store", "field_7": null }, "geometry": { "type": "Point", "coordinates": [ 2.211655604198801, 41.409014624605796 ] } },
{ "type": "Feature", "properties": { "field_1": 177, "Venues_id": "4b894967f964a520a42832e3", "Name": "Farggi", "lat": 41.409991329217192, "lon": 2.2145010621960783, "category": "Other Great Outdoors", "field_7": null }, "geometry": { "type": "Point", "coordinates": [ 2.214501062196078, 41.409991329217192 ] } },
{ "type": "Feature", "properties": { "field_1": 178, "Venues_id": "4de06f1345dd3eae876f3c54", "Name": "Carrer De La Sort", "lat": 41.408422, "lon": 2.211949, "category": "Breakfast Spot", "field_7": null }, "geometry": { "type": "Point", "coordinates": [ 2.211949, 41.408422 ] } },
{ "type": "Feature", "properties": { "field_1": 179, "Venues_id": "4e10466fb61c637b97a2a436", "Name": "Piscina - Selva de Mar, 18", "lat": 41.406859865799433, "lon": 2.21323576933781, "category": "Building", "field_7": null }, "geometry": { "type": "Point", "coordinates": [ 2.21323576933781, 41.406859865799433 ] } },
{ "type": "Feature", "properties": { "field_1": 180, "Venues_id": "4da19a1db3e7236ad2cb0c79", "Name": "Bar Kim", "lat": 41.409888484423959, "lon": 2.2111272811889648, "category": "Pharmacy", "field_7": null }, "geometry": { "type": "Point", "coordinates": [ 2.211127281188965, 41.409888484423959 ] } },
{ "type": "Feature", "properties": { "field_1": 181, "Venues_id": "4f2d9916e4b0bd78b707946e", "Name": "Lavabo De Marghe", "lat": 41.407905, "lon": 2.213348, "category": "Nail Salon", "field_7": null }, "geometry": { "type": "Point", "coordinates": [ 2.213348, 41.407905 ] } },
{ "type": "Feature", "properties": { "field_1": 182, "Venues_id": "4ca0a71646978cfaa149b57f", "Name": "Zentropa Spain", "lat": 41.405926, "lon": 2.212631, "category": "Strip Club", "field_7": null }, "geometry": { "type": "Point", "coordinates": [ 2.212631, 41.405926 ] } },
{ "type": "Feature", "properties": { "field_1": 183, "Venues_id": "4f08b809e4b0ef60eddb781a", "Name": "La tagliatela", "lat": 41.408255936315157, "lon": 2.2116363928048481, "category": "Pool", "field_7": null }, "geometry": { "type": "Point", "coordinates": [ 2.211636392804848, 41.408255936315157 ] } },
{ "type": "Feature", "properties": { "field_1": 184, "Venues_id": "58228864b078be59c63e35fa", "Name": "carrer de Llul 350", "lat": 41.408982, "lon": 2.212522, "category": "Dive Bar", "field_7": null }, "geometry": { "type": "Point", "coordinates": [ 2.212522, 41.408982 ] } },
{ "type": "Feature", "properties": { "field_1": 185, "Venues_id": "4e075096ae60a90eabc81fdd", "Name": "Bar cafe Montserrat", "lat": 41.410003796292237, "lon": 2.2142588236745686, "category": "Restaurant", "field_7": null }, "geometry": { "type": "Point", "coordinates": [ 2.214258823674569, 41.410003796292237 ] } },
{ "type": "Feature", "properties": { "field_1": 186, "Venues_id": "4c38da15dfb0e21e5367afa8", "Name": "Mango Restaurant I Copes", "lat": 41.409248873839658, "lon": 2.2150828950482859, "category": "Event Space", "field_7": null }, "geometry": { "type": "Point", "coordinates": [ 2.215082895048286, 41.409248873839658 ] } },
{ "type": "Feature", "properties": { "field_1": 187, "Venues_id": "4d8767e702eb548191d169f5", "Name": "Cortefiel Diagonal Mar", "lat": 41.40972912311554, "lon": 2.21324622631073, "category": "Art Gallery", "field_7": null }, "geometry": { "type": "Point", "coordinates": [ 2.21324622631073, 41.40972912311554 ] } },
{ "type": "Feature", "properties": { "field_1": 188, "Venues_id": "4e9eb4e61081a02e637f2eae", "Name": "Sphere Mania", "lat": 41.407072115462398, "lon": 2.2128868103027344, "category": "Ice Cream Shop", "field_7": null }, "geometry": { "type": "Point", "coordinates": [ 2.212886810302734, 41.407072115462398 ] } },
{ "type": "Feature", "properties": { "field_1": 189, "Venues_id": "51d3f9a8498ed659550ddc73", "Name": "bar la Fundición", "lat": 41.40703559436254, "lon": 2.2121262859041577, "category": "Circus", "field_7": null }, "geometry": { "type": "Point", "coordinates": [ 2.212126285904158, 41.40703559436254 ] } },
{ "type": "Feature", "properties": { "field_1": 190, "Venues_id": "4dcd3903b0fb25f6e3247b26", "Name": "Home & Sun", "lat": 41.406832, "lon": 2.213764, "category": "Pub", "field_7": null }, "geometry": { "type": "Point", "coordinates": [ 2.213764, 41.406832 ] } },
{ "type": "Feature", "properties": { "field_1": 191, "Venues_id": "4d3b60371fc36dcb580271f5", "Name": "F Pujades", "lat": 41.406586, "lon": 2.213937, "category": "Building", "field_7": null }, "geometry": { "type": "Point", "coordinates": [ 2.213937, 41.406586 ] } },
{ "type": "Feature", "properties": { "field_1": 192, "Venues_id": "51515a18e4b0c1bc429cc95b", "Name": "Benai", "lat": 41.408829, "lon": 2.21522, "category": "Office", "field_7": null }, "geometry": { "type": "Point", "coordinates": [ 2.21522, 41.408829 ] } },
{ "type": "Feature", "properties": { "field_1": 193, "Venues_id": "527570fa11d216db72dde660", "Name": "Mikala", "lat": 41.409200109473929, "lon": 2.2149841015868068, "category": "Office", "field_7": null }, "geometry": { "type": "Point", "coordinates": [ 2.214984101586807, 41.409200109473929 ] } },
{ "type": "Feature", "properties": { "field_1": 194, "Venues_id": "572ae0ac498e845e0433ee21", "Name": "Party Appartement Barcelona", "lat": 41.406136, "lon": 2.214201, "category": "Building", "field_7": null }, "geometry": { "type": "Point", "coordinates": [ 2.214201, 41.406136 ] } },
{ "type": "Feature", "properties": { "field_1": 195, "Venues_id": "4e40da2aae60920b0172e59f", "Name": "Penhouse", "lat": 41.406831, "lon": 2.213767, "category": "Office", "field_7": null }, "geometry": { "type": "Point", "coordinates": [ 2.213767, 41.406831 ] } },
{ "type": "Feature", "properties": { "field_1": 196, "Venues_id": "4fef9238e4b0eb758557de89", "Name": "Sofa Marghe", "lat": 41.407715, "lon": 2.213564, "category": "Bank", "field_7": null }, "geometry": { "type": "Point", "coordinates": [ 2.213564, 41.407715 ] } },
{ "type": "Feature", "properties": { "field_1": 197, "Venues_id": "4fc76ab9e4b0420e6fbf0b55", "Name": "La Piscina del apartamento", "lat": 41.40702, "lon": 2.213568, "category": "Playground", "field_7": null }, "geometry": { "type": "Point", "coordinates": [ 2.213568, 41.40702 ] } },
{ "type": "Feature", "properties": { "field_1": 198, "Venues_id": "4ea40356b80355a98264246c", "Name": "Supermercats Poma Vermella", "lat": 41.406316, "lon": 2.21146, "category": "Residential Building (Apartment \/ Condo)", "field_7": null }, "geometry": { "type": "Point", "coordinates": [ 2.21146, 41.406316 ] } },
{ "type": "Feature", "properties": { "field_1": 199, "Venues_id": "543412fb498e0f62072cf8ab", "Name": "kala mar", "lat": 41.409270023193564, "lon": 2.215089772188569, "category": "Post Office", "field_7": null }, "geometry": { "type": "Point", "coordinates": [ 2.215089772188569, 41.409270023193564 ] } },
{ "type": "Feature", "properties": { "field_1": 200, "Venues_id": "555f579f498eb6b125ca1006", "Name": "20' fit Redidence", "lat": 41.40843, "lon": 2.215446, "category": "Medical Center", "field_7": null }, "geometry": { "type": "Point", "coordinates": [ 2.215446, 41.40843 ] } },
{ "type": "Feature", "properties": { "field_1": 201, "Venues_id": "4e298106c65ba11f4c66fde4", "Name": "Café Di Lorenzo", "lat": 41.408711197900715, "lon": 2.2143692957171583, "category": "Student Center", "field_7": null }, "geometry": { "type": "Point", "coordinates": [ 2.214369295717158, 41.408711197900715 ] } },
{ "type": "Feature", "properties": { "field_1": 202, "Venues_id": "4e50369162e14b77e3a811c5", "Name": "3 Floors Flat In Barsa", "lat": 41.40844, "lon": 2.215217, "category": "Bookstore", "field_7": null }, "geometry": { "type": "Point", "coordinates": [ 2.215217, 41.40844 ] } },
{ "type": "Feature", "properties": { "field_1": 203, "Venues_id": "4ea07a6ee5fa13c70e8795e0", "Name": "Oficina36", "lat": 41.4091318, "lon": 2.2114667, "category": "Salon \/ Barbershop", "field_7": null }, "geometry": { "type": "Point", "coordinates": [ 2.2114667, 41.4091318 ] } },
{ "type": "Feature", "properties": { "field_1": 204, "Venues_id": "51695ce0e4b0184c265151db", "Name": "yogulove", "lat": 41.406604766845703, "lon": 2.2117209434509277, "category": "Tapas Restaurant", "field_7": null }, "geometry": { "type": "Point", "coordinates": [ 2.211720943450928, 41.406604766845703 ] } },
{ "type": "Feature", "properties": { "field_1": 205, "Venues_id": "52c829fc11d28f85e3201c8c", "Name": "Circo Alex Zavatta", "lat": 41.409263507137439, "lon": 2.2127746820028524, "category": "Yoga Studio", "field_7": null }, "geometry": { "type": "Point", "coordinates": [ 2.212774682002852, 41.409263507137439 ] } },
{ "type": "Feature", "properties": { "field_1": 206, "Venues_id": "4c08fa34340720a16cea8393", "Name": "Dreams Pub", "lat": 41.407413279740368, "lon": 2.2131637241313591, "category": "Theme Park Ride \/ Attraction", "field_7": null }, "geometry": { "type": "Point", "coordinates": [ 2.213163724131359, 41.407413279740368 ] } },
{ "type": "Feature", "properties": { "field_1": 207, "Venues_id": "4c573ed530d82d7fcf66d962", "Name": "281 Passeig Del Taulat", "lat": 41.40625664659823, "lon": 2.2142876424422338, "category": "Tapas Restaurant", "field_7": null }, "geometry": { "type": "Point", "coordinates": [ 2.214287642442234, 41.40625664659823 ] } },
{ "type": "Feature", "properties": { "field_1": 208, "Venues_id": "4d592fae3281b1f7bc20b82f", "Name": "Icnet", "lat": 41.40969, "lon": 2.212055, "category": "Mexican Restaurant", "field_7": null }, "geometry": { "type": "Point", "coordinates": [ 2.212055, 41.40969 ] } },
{ "type": "Feature", "properties": { "field_1": 209, "Venues_id": "4b546bd9f964a520afba27e3", "Name": "Sara Lee", "lat": 41.407830188208976, "lon": 2.2158486865018792, "category": "Health Food Store", "field_7": null }, "geometry": { "type": "Point", "coordinates": [ 2.215848686501879, 41.407830188208976 ] } },
{ "type": "Feature", "properties": { "field_1": 210, "Venues_id": "4dc106b6fa764d03e9f4e338", "Name": "Reparalia", "lat": 41.406642279512056, "lon": 2.2142155955575555, "category": "Toy \/ Game Store", "field_7": null }, "geometry": { "type": "Point", "coordinates": [ 2.214215595557556, 41.406642279512056 ] } },
{ "type": "Feature", "properties": { "field_1": 211, "Venues_id": "4cc9e688e7926dcbbbad5f77", "Name": "Zentropa Spain", "lat": 41.40566498005267, "lon": 2.2125393371572386, "category": "Latin American Restaurant", "field_7": null }, "geometry": { "type": "Point", "coordinates": [ 2.212539337157239, 41.40566498005267 ] } },
{ "type": "Feature", "properties": { "field_1": 212, "Venues_id": "4efd79cd29c201c6fb135f1b", "Name": "Caixa Penedes", "lat": 41.409907332308201, "lon": 2.2117516612911832, "category": "Bar", "field_7": null }, "geometry": { "type": "Point", "coordinates": [ 2.211751661291183, 41.409907332308201 ] } },
{ "type": "Feature", "properties": { "field_1": 213, "Venues_id": "4e173e19a8097d08b22b1599", "Name": "Area Joc Infantil - Diagonal 58", "lat": 41.409578510295624, "lon": 2.2114586877983107, "category": "Chinese Restaurant", "field_7": null }, "geometry": { "type": "Point", "coordinates": [ 2.211458687798311, 41.409578510295624 ] } },
{ "type": "Feature", "properties": { "field_1": 214, "Venues_id": "4e4ba33c922ef82562173f5d", "Name": "YouStylish B400", "lat": 41.407088209346149, "lon": 2.2133159637451172, "category": "Japanese Restaurant", "field_7": null }, "geometry": { "type": "Point", "coordinates": [ 2.213315963745117, 41.407088209346149 ] } },
{ "type": "Feature", "properties": { "field_1": 215, "Venues_id": "4b862a02f964a520968131e3", "Name": "Correos", "lat": 41.407313523300026, "lon": 2.1774226427078247, "category": "Indian Restaurant", "field_7": null }, "geometry": { "type": "Point", "coordinates": [ 2.177422642707825, 41.407313523300026 ] } },
{ "type": "Feature", "properties": { "field_1": 216, "Venues_id": "4cd835f215d8b60cccdc640e", "Name": "CROT", "lat": 41.40785053195038, "lon": 2.1773894842672439, "category": "Beer Store", "field_7": null }, "geometry": { "type": "Point", "coordinates": [ 2.177389484267244, 41.40785053195038 ] } },
{ "type": "Feature", "properties": { "field_1": 217, "Venues_id": "4c1ab0ac624b9c74bb771204", "Name": "Centro de Estudios Parker", "lat": 41.407934079564718, "lon": 2.1772075512784981, "category": "Hotel", "field_7": null }, "geometry": { "type": "Point", "coordinates": [ 2.177207551278498, 41.407934079564718 ] } },
{ "type": "Feature", "properties": { "field_1": 218, "Venues_id": "4b9e78d0f964a520d8e636e3", "Name": "Cosmic Comics", "lat": 41.407210100292083, "lon": 2.1775858015280392, "category": "Salon \/ Barbershop", "field_7": null }, "geometry": { "type": "Point", "coordinates": [ 2.177585801528039, 41.407210100292083 ] } },
{ "type": "Feature", "properties": { "field_1": 219, "Venues_id": "5c49aaa3d48ec10039863ac4", "Name": "The Wee Barber Shop", "lat": 41.407686, "lon": 2.176653, "category": "Bank", "field_7": null }, "geometry": { "type": "Point", "coordinates": [ 2.176653, 41.407686 ] } },
{ "type": "Feature", "properties": { "field_1": 220, "Venues_id": "4e80c43f2c5bbe5d074aa21f", "Name": "Bar El Sol", "lat": 41.40797701313727, "lon": 2.176556, "category": "Health & Beauty Service", "field_7": null }, "geometry": { "type": "Point", "coordinates": [ 2.176556, 41.40797701313727 ] } },
{ "type": "Feature", "properties": { "field_1": 221, "Venues_id": "56a37eaf498ea4930a107582", "Name": "Yogabody 3", "lat": 41.409040962389305, "lon": 2.1766910621757991, "category": "Grocery Store", "field_7": null }, "geometry": { "type": "Point", "coordinates": [ 2.176691062175799, 41.409040962389305 ] } },
{ "type": "Feature", "properties": { "field_1": 222, "Venues_id": "5634a810498e56368c69a9cd", "Name": "Tactic", "lat": 41.407367636027018, "lon": 2.1771747204535616, "category": "Gym", "field_7": null }, "geometry": { "type": "Point", "coordinates": [ 2.177174720453562, 41.407367636027018 ] } },
{ "type": "Feature", "properties": { "field_1": 223, "Venues_id": "5b6dfe91dd12f8002c4261b7", "Name": "Casa Diaz", "lat": 41.407288, "lon": 2.1770492, "category": "Diner", "field_7": null }, "geometry": { "type": "Point", "coordinates": [ 2.1770492, 41.407288 ] } },
{ "type": "Feature", "properties": { "field_1": 224, "Venues_id": "5ab3b531625a6620fb1c3f27", "Name": "La Chula", "lat": 41.407257, "lon": 2.175899, "category": "Mediterranean Restaurant", "field_7": null }, "geometry": { "type": "Point", "coordinates": [ 2.175899, 41.407257 ] } },
{ "type": "Feature", "properties": { "field_1": 225, "Venues_id": "517eaaa8498e2f01a4de9c16", "Name": "Granja Armengol", "lat": 41.40673918952703, "lon": 2.1774434752323066, "category": "Deli \/ Bodega", "field_7": null }, "geometry": { "type": "Point", "coordinates": [ 2.177443475232307, 41.40673918952703 ] } },
{ "type": "Feature", "properties": { "field_1": 226, "Venues_id": "5183fc9b498e2f0dca9c2a34", "Name": "Cosmic wars", "lat": 41.407387731690058, "lon": 2.1773090976424401, "category": "Convenience Store", "field_7": null }, "geometry": { "type": "Point", "coordinates": [ 2.17730909764244, 41.407387731690058 ] } },
{ "type": "Feature", "properties": { "field_1": 227, "Venues_id": "5244a4ce11d2bb4e5586b333", "Name": "Arepazo", "lat": 41.408424377441406, "lon": 2.1778829097747803, "category": "Bank", "field_7": null }, "geometry": { "type": "Point", "coordinates": [ 2.17788290977478, 41.408424377441406 ] } },
{ "type": "Feature", "properties": { "field_1": 228, "Venues_id": "4be2fadbd27a20a17ee2905b", "Name": "Bar Castillejos", "lat": 41.40736992, "lon": 2.17720499, "category": "Playground", "field_7": null }, "geometry": { "type": "Point", "coordinates": [ 2.17720499, 41.40736992 ] } },
{ "type": "Feature", "properties": { "field_1": 229, "Venues_id": "4da057165970b1f73941571e", "Name": "Nueva Epoca Restaurante Chino", "lat": 41.407553114554538, "lon": 2.1784347626222269, "category": "Paper \/ Office Supplies Store", "field_7": null }, "geometry": { "type": "Point", "coordinates": [ 2.178434762622227, 41.407553114554538 ] } },
{ "type": "Feature", "properties": { "field_1": 230, "Venues_id": "5d9b6e3a1d307d0008450c72", "Name": "Kiwami", "lat": 41.407143, "lon": 2.178152, "category": "Office", "field_7": null }, "geometry": { "type": "Point", "coordinates": [ 2.178152, 41.407143 ] } },
{ "type": "Feature", "properties": { "field_1": 231, "Venues_id": "4e91a19a02d5ee38b7373133", "Name": "Dechenling", "lat": 41.407330237903551, "lon": 2.1760469277098031, "category": "Theme Park", "field_7": null }, "geometry": { "type": "Point", "coordinates": [ 2.176046927709803, 41.407330237903551 ] } },
{ "type": "Feature", "properties": { "field_1": 232, "Venues_id": "4d6f69e350096a31f64d2e16", "Name": "MH Apartments Family", "lat": 41.407340346513976, "lon": 2.1761395497826475, "category": "Bar", "field_7": null }, "geometry": { "type": "Point", "coordinates": [ 2.176139549782647, 41.407340346513976 ] } },
{ "type": "Feature", "properties": { "field_1": 233, "Venues_id": "55b3dbc1498e09d93618b942", "Name": "Estyle", "lat": 41.407104303225907, "lon": 2.1782004833221436, "category": "Residential Building (Apartment \/ Condo)", "field_7": null }, "geometry": { "type": "Point", "coordinates": [ 2.178200483322144, 41.407104303225907 ] } },
{ "type": "Feature", "properties": { "field_1": 234, "Venues_id": "4d39cd280333a093b7784e34", "Name": "La Caixa", "lat": 41.408567477710172, "lon": 2.1779042014417764, "category": "Other Nightlife", "field_7": null }, "geometry": { "type": "Point", "coordinates": [ 2.177904201441776, 41.408567477710172 ] } },
{ "type": "Feature", "properties": { "field_1": 235, "Venues_id": "54c0eaf6498e8105a7096282", "Name": "Akkra", "lat": 41.40739099, "lon": 2.178427187, "category": "Beer Bar", "field_7": null }, "geometry": { "type": "Point", "coordinates": [ 2.178427187, 41.40739099 ] } },
{ "type": "Feature", "properties": { "field_1": 236, "Venues_id": "4c6f92b9344437048385215f", "Name": "la Sirena", "lat": 41.407177448670531, "lon": 2.1771726339528978, "category": "Café", "field_7": null }, "geometry": { "type": "Point", "coordinates": [ 2.177172633952898, 41.407177448670531 ] } },
{ "type": "Feature", "properties": { "field_1": 237, "Venues_id": "4e5f9f74d4c0007344a70de9", "Name": "Carrer Dega", "lat": 41.408415846876736, "lon": 2.1778418111583133, "category": "Supermarket", "field_7": null }, "geometry": { "type": "Point", "coordinates": [ 2.177841811158313, 41.408415846876736 ] } },
{ "type": "Feature", "properties": { "field_1": 238, "Venues_id": "4f427c52e4b0e5bc1490f184", "Name": "Curves Sagrada Familia", "lat": 41.40808333958725, "lon": 2.1768867706848098, "category": "Bar", "field_7": null }, "geometry": { "type": "Point", "coordinates": [ 2.17688677068481, 41.40808333958725 ] } },
{ "type": "Feature", "properties": { "field_1": 239, "Venues_id": "512c945ee4b0f44a82dad456", "Name": "Castillejos", "lat": 41.40742575490065, "lon": 2.1769923520528915, "category": "Bakery", "field_7": null }, "geometry": { "type": "Point", "coordinates": [ 2.176992352052892, 41.40742575490065 ] } },
{ "type": "Feature", "properties": { "field_1": 240, "Venues_id": "4cffa19641322d4365c520c1", "Name": "Pizzeria-Trattoria Vilaret", "lat": 41.407056946956118, "lon": 2.1781935898616211, "category": "Health & Beauty Service", "field_7": null }, "geometry": { "type": "Point", "coordinates": [ 2.178193589861621, 41.407056946956118 ] } },
{ "type": "Feature", "properties": { "field_1": 241, "Venues_id": "542054e1498ebde7084d1bd4", "Name": "El Graner", "lat": 41.406803826834448, "lon": 2.1772611057432374, "category": "Nail Salon", "field_7": null }, "geometry": { "type": "Point", "coordinates": [ 2.177261105743237, 41.406803826834448 ] } },
{ "type": "Feature", "properties": { "field_1": 242, "Venues_id": "4be7a4209a54a5936c1c0911", "Name": "Mupresca", "lat": 41.408049, "lon": 2.176982, "category": "Shopping Mall", "field_7": null }, "geometry": { "type": "Point", "coordinates": [ 2.176982, 41.408049 ] } },
{ "type": "Feature", "properties": { "field_1": 243, "Venues_id": "5b4759b665211f002bc43ffb", "Name": "Seven 11 Super Mercat", "lat": 41.407778, "lon": 2.178716, "category": "Office", "field_7": null }, "geometry": { "type": "Point", "coordinates": [ 2.178716, 41.407778 ] } },
{ "type": "Feature", "properties": { "field_1": 244, "Venues_id": "52e24ce811d2f8cd8861188c", "Name": "Bankia", "lat": 41.407554930240686, "lon": 2.176365852355957, "category": "Department Store", "field_7": null }, "geometry": { "type": "Point", "coordinates": [ 2.176365852355957, 41.407554930240686 ] } },
{ "type": "Feature", "properties": { "field_1": 245, "Venues_id": "4dd8fcde1f6ee1468348a262", "Name": "Jardins de Montserrat Roig", "lat": 41.408559685832785, "lon": 2.178785746184781, "category": "Furniture \/ Home Store", "field_7": null }, "geometry": { "type": "Point", "coordinates": [ 2.178785746184781, 41.408559685832785 ] } },
{ "type": "Feature", "properties": { "field_1": 246, "Venues_id": "4fb3e94be4b06a2cd00dd1c7", "Name": "Para Envolver", "lat": 41.4073754103715, "lon": 2.1759845399995461, "category": "Doctor's Office", "field_7": null }, "geometry": { "type": "Point", "coordinates": [ 2.175984539999546, 41.4073754103715 ] } },
{ "type": "Feature", "properties": { "field_1": 247, "Venues_id": "59f747c135d3fc2f62940ad0", "Name": "COPLEFC", "lat": 41.406617, "lon": 2.177418, "category": "Café", "field_7": null }, "geometry": { "type": "Point", "coordinates": [ 2.177418, 41.406617 ] } },
{ "type": "Feature", "properties": { "field_1": 248, "Venues_id": "4df77d8762845f605bb70c3a", "Name": "Planeta Magic", "lat": 41.408390948221168, "lon": 2.176042128652099, "category": "Residential Building (Apartment \/ Condo)", "field_7": null }, "geometry": { "type": "Point", "coordinates": [ 2.176042128652099, 41.408390948221168 ] } },
{ "type": "Feature", "properties": { "field_1": 249, "Venues_id": "597b705881635b3c49e6c781", "Name": "Myosotis", "lat": 41.40664763783942, "lon": 2.1779966354370117, "category": "Café", "field_7": null }, "geometry": { "type": "Point", "coordinates": [ 2.177996635437012, 41.40664763783942 ] } },
{ "type": "Feature", "properties": { "field_1": 250, "Venues_id": "4e1f7a16d22d0a3f59e3f9c1", "Name": "Bodega Machin", "lat": 41.408164455306654, "lon": 2.1781489641577498, "category": "Nail Salon", "field_7": null }, "geometry": { "type": "Point", "coordinates": [ 2.17814896415775, 41.408164455306654 ] } },
{ "type": "Feature", "properties": { "field_1": 251, "Venues_id": "515a2c2be4b03f6bd119afbd", "Name": "Sagrada Familia Design", "lat": 41.407182, "lon": 2.178021, "category": "Salon \/ Barbershop", "field_7": null }, "geometry": { "type": "Point", "coordinates": [ 2.178021, 41.407182 ] } },
{ "type": "Feature", "properties": { "field_1": 252, "Venues_id": "4c7a8fc3df08a1cdd70fde5d", "Name": "eilex palace", "lat": 41.408670740438261, "lon": 2.1766598401936439, "category": "Furniture \/ Home Store", "field_7": null }, "geometry": { "type": "Point", "coordinates": [ 2.176659840193644, 41.408670740438261 ] } },
{ "type": "Feature", "properties": { "field_1": 253, "Venues_id": "4dc6efd9887717c88048e2c0", "Name": "Pivo Bar", "lat": 41.407340621276283, "lon": 2.1781017245302792, "category": "Café", "field_7": null }, "geometry": { "type": "Point", "coordinates": [ 2.178101724530279, 41.407340621276283 ] } },
{ "type": "Feature", "properties": { "field_1": 254, "Venues_id": "4d339d728c42a1cd4ecdf35d", "Name": "Kampen", "lat": 41.408544206125868, "lon": 2.1776789925394775, "category": "Hardware Store", "field_7": null }, "geometry": { "type": "Point", "coordinates": [ 2.177678992539477, 41.408544206125868 ] } },
{ "type": "Feature", "properties": { "field_1": 255, "Venues_id": "4d38046f147360fc23d24d72", "Name": "Dia", "lat": 41.407963845363966, "lon": 2.1784801158320595, "category": "Parking", "field_7": null }, "geometry": { "type": "Point", "coordinates": [ 2.178480115832059, 41.407963845363966 ] } },
{ "type": "Feature", "properties": { "field_1": 256, "Venues_id": "5a7471cd9411f2327b3a3a76", "Name": "Luichi’s Bar Cafetería", "lat": 41.407739, "lon": 2.176979, "category": "Bank", "field_7": null }, "geometry": { "type": "Point", "coordinates": [ 2.176979, 41.407739 ] } },
{ "type": "Feature", "properties": { "field_1": 257, "Venues_id": "50f4ff1fe4b01ffa8858a457", "Name": "Forn de Pa \"artesà\"", "lat": 41.407840728759766, "lon": 2.1766777038574219, "category": "Miscellaneous Shop", "field_7": null }, "geometry": { "type": "Point", "coordinates": [ 2.176677703857422, 41.407840728759766 ] } },
{ "type": "Feature", "properties": { "field_1": 258, "Venues_id": "56aa285e498ed4219660402d", "Name": "MARIABE", "lat": 41.408512, "lon": 2.1777983, "category": "Thrift \/ Vintage Store", "field_7": null }, "geometry": { "type": "Point", "coordinates": [ 2.1777983, 41.408512 ] } },
{ "type": "Feature", "properties": { "field_1": 259, "Venues_id": "4fd0a64ee4b04552ed4ac982", "Name": "Roccopelo", "lat": 41.407798767089844, "lon": 2.1772208213806152, "category": "Health & Beauty Service", "field_7": null }, "geometry": { "type": "Point", "coordinates": [ 2.177220821380615, 41.407798767089844 ] } },
{ "type": "Feature", "properties": { "field_1": 260, "Venues_id": "51beb8f7498ecc9226857651", "Name": "Eroski Sagrada", "lat": 41.40666, "lon": 2.177255, "category": "Arepa Restaurant", "field_7": null }, "geometry": { "type": "Point", "coordinates": [ 2.177255, 41.40666 ] } },
{ "type": "Feature", "properties": { "field_1": 261, "Venues_id": "4d7de2f48700370407296699", "Name": "Balsells Zaragoza Gestió", "lat": 41.408198, "lon": 2.176768, "category": "Food & Drink Shop", "field_7": null }, "geometry": { "type": "Point", "coordinates": [ 2.176768, 41.408198 ] } },
{ "type": "Feature", "properties": { "field_1": 262, "Venues_id": "523968f5498e5bc4591e3bb5", "Name": "Caprabo Provenza", "lat": 41.406885211340352, "lon": 2.1770931344988069, "category": "Grocery Store", "field_7": null }, "geometry": { "type": "Point", "coordinates": [ 2.177093134498807, 41.406885211340352 ] } },
{ "type": "Feature", "properties": { "field_1": 263, "Venues_id": "4f47cefde4b08f45dc138b57", "Name": "La Provença", "lat": 41.408558425525463, "lon": 2.1775394594705713, "category": "Pharmacy", "field_7": null }, "geometry": { "type": "Point", "coordinates": [ 2.177539459470571, 41.408558425525463 ] } },
{ "type": "Feature", "properties": { "field_1": 264, "Venues_id": "577257f2498e66eef3caaf28", "Name": "GIREXX", "lat": 41.408322, "lon": 2.178024, "category": "Medical Center", "field_7": null }, "geometry": { "type": "Point", "coordinates": [ 2.178024, 41.408322 ] } },
{ "type": "Feature", "properties": { "field_1": 265, "Venues_id": "4d483fc64c9ef04d2be06815", "Name": "La Granja Del Barri", "lat": 41.40753710218587, "lon": 2.1785521056486865, "category": "Building", "field_7": null }, "geometry": { "type": "Point", "coordinates": [ 2.178552105648687, 41.40753710218587 ] } },
{ "type": "Feature", "properties": { "field_1": 266, "Venues_id": "4e1c96c9ae605fbe03861d76", "Name": "Casita!", "lat": 41.40663745, "lon": 2.1768496, "category": "Building", "field_7": null }, "geometry": { "type": "Point", "coordinates": [ 2.1768496, 41.40663745 ] } },
{ "type": "Feature", "properties": { "field_1": 267, "Venues_id": "4da42e539aa4721eaab4311a", "Name": "Bar la cabaña", "lat": 41.407039927682931, "lon": 2.1777606010437012, "category": "Food & Drink Shop", "field_7": null }, "geometry": { "type": "Point", "coordinates": [ 2.177760601043701, 41.407039927682931 ] } },
{ "type": "Feature", "properties": { "field_1": 268, "Venues_id": "53848263498e77bc15fffcde", "Name": "No+Vello", "lat": 41.408633203624845, "lon": 2.1779000759124756, "category": "Salon \/ Barbershop", "field_7": null }, "geometry": { "type": "Point", "coordinates": [ 2.177900075912476, 41.408633203624845 ] } },
{ "type": "Feature", "properties": { "field_1": 269, "Venues_id": "51a623fb498e424d42cd435b", "Name": "Scissors&art", "lat": 41.407228746348345, "lon": 2.1762532876749412, "category": "Coworking Space", "field_7": null }, "geometry": { "type": "Point", "coordinates": [ 2.176253287674941, 41.407228746348345 ] } },
{ "type": "Feature", "properties": { "field_1": 270, "Venues_id": "531763fc498e8a08fa28b80a", "Name": "tengo idea", "lat": 41.408298492431641, "lon": 2.1763784885406494, "category": "Hardware Store", "field_7": null }, "geometry": { "type": "Point", "coordinates": [ 2.176378488540649, 41.408298492431641 ] } },
{ "type": "Feature", "properties": { "field_1": 271, "Venues_id": "4c9e2c088afca0934c06fe15", "Name": "Portofino", "lat": 41.408698252472426, "lon": 2.1801244418654897, "category": "Yoga Studio", "field_7": null }, "geometry": { "type": "Point", "coordinates": [ 2.18012444186549, 41.408698252472426 ] } },
{ "type": "Feature", "properties": { "field_1": 272, "Venues_id": "4f61b0cde4b04b82c8d4f15c", "Name": "Bodebric", "lat": 41.40770432, "lon": 2.17616946, "category": "Housing Development", "field_7": null }, "geometry": { "type": "Point", "coordinates": [ 2.17616946, 41.40770432 ] } },
{ "type": "Feature", "properties": { "field_1": 273, "Venues_id": "571e47be498e21ffe09d27fd", "Name": "Garatge M", "lat": 41.408238, "lon": 2.177034, "category": "Latin American Restaurant", "field_7": null }, "geometry": { "type": "Point", "coordinates": [ 2.177034, 41.408238 ] } },
{ "type": "Feature", "properties": { "field_1": 274, "Venues_id": "4e4a29d6b61c68864856dd0f", "Name": "Catalunyacaixa", "lat": 41.408134, "lon": 2.176973, "category": "Residential Building (Apartment \/ Condo)", "field_7": null }, "geometry": { "type": "Point", "coordinates": [ 2.176973, 41.408134 ] } },
{ "type": "Feature", "properties": { "field_1": 275, "Venues_id": "4b754f4ef964a520a2052ee3", "Name": "Bar Margem", "lat": 41.408564850679596, "lon": 2.1782353513162933, "category": "Outdoor Event Space", "field_7": null }, "geometry": { "type": "Point", "coordinates": [ 2.178235351316293, 41.408564850679596 ] } },
{ "type": "Feature", "properties": { "field_1": 276, "Venues_id": "4e2e7d097d8bf59d290cda3c", "Name": "Smeg Service", "lat": 41.407234, "lon": 2.175989, "category": "College Rec Center", "field_7": null }, "geometry": { "type": "Point", "coordinates": [ 2.175989, 41.407234 ] } },
{ "type": "Feature", "properties": { "field_1": 277, "Venues_id": "50705947e4b07504259e506d", "Name": "Mer-K-2", "lat": 41.407724, "lon": 2.178764, "category": "Spa", "field_7": null }, "geometry": { "type": "Point", "coordinates": [ 2.178764, 41.407724 ] } },
{ "type": "Feature", "properties": { "field_1": 278, "Venues_id": "56128533498e55bb55cda415", "Name": "Elegancia Y EStilo", "lat": 41.406772685303558, "lon": 2.1777890194475096, "category": "Salon \/ Barbershop", "field_7": null }, "geometry": { "type": "Point", "coordinates": [ 2.17778901944751, 41.406772685303558 ] } },
{ "type": "Feature", "properties": { "field_1": 279, "Venues_id": "5298fd5e11d2527452473efb", "Name": "el arepazo restaurante Colombiano", "lat": 41.408504486083984, "lon": 2.1786520481109619, "category": "Coworking Space", "field_7": null }, "geometry": { "type": "Point", "coordinates": [ 2.178652048110962, 41.408504486083984 ] } },
{ "type": "Feature", "properties": { "field_1": 280, "Venues_id": "52c87147498eab14722b6b2f", "Name": "503B Carrer Provença", "lat": 41.407165, "lon": 2.17799, "category": "Mediterranean Restaurant", "field_7": null }, "geometry": { "type": "Point", "coordinates": [ 2.17799, 41.407165 ] } },
{ "type": "Feature", "properties": { "field_1": 281, "Venues_id": "4f5a8250e4b0695cb950e8ea", "Name": "Mercat Accessible", "lat": 41.408005, "lon": 2.176772, "category": "Miscellaneous Shop", "field_7": null }, "geometry": { "type": "Point", "coordinates": [ 2.176772, 41.408005 ] } },
{ "type": "Feature", "properties": { "field_1": 282, "Venues_id": "528219d311d2cca1ca5a5620", "Name": "consum basic", "lat": 41.408716845278384, "lon": 2.1776930346773278, "category": "Design Studio", "field_7": null }, "geometry": { "type": "Point", "coordinates": [ 2.177693034677328, 41.408716845278384 ] } },
{ "type": "Feature", "properties": { "field_1": 283, "Venues_id": "4f638c14e4b041039cd8a481", "Name": "Farmactiva", "lat": 41.4076773, "lon": 2.1780271, "category": "Nail Salon", "field_7": null }, "geometry": { "type": "Point", "coordinates": [ 2.1780271, 41.4076773 ] } },
{ "type": "Feature", "properties": { "field_1": 284, "Venues_id": "50ad36b3e4b0fcc4d78d6389", "Name": "L'espai del Cos", "lat": 41.40829100595689, "lon": 2.1764260548847094, "category": "Pizza Place", "field_7": null }, "geometry": { "type": "Point", "coordinates": [ 2.176426054884709, 41.40829100595689 ] } },
{ "type": "Feature", "properties": { "field_1": 285, "Venues_id": "4f97df43e4b0e34f3e03d166", "Name": "Prodecor", "lat": 41.40745, "lon": 2.176057, "category": "Assisted Living", "field_7": null }, "geometry": { "type": "Point", "coordinates": [ 2.176057, 41.40745 ] } },
{ "type": "Feature", "properties": { "field_1": 286, "Venues_id": "4d6b7a5d4395a1cda39da773", "Name": "Fraternidad", "lat": 41.408857882987107, "lon": 2.177990588130807, "category": "Convenience Store", "field_7": null }, "geometry": { "type": "Point", "coordinates": [ 2.177990588130807, 41.408857882987107 ] } },
{ "type": "Feature", "properties": { "field_1": 287, "Venues_id": "578924cd498e99df080fd178", "Name": "A Mà - Espai Gastronòmic", "lat": 41.40736, "lon": 2.1772828, "category": "Salon \/ Barbershop", "field_7": null }, "geometry": { "type": "Point", "coordinates": [ 2.1772828, 41.40736 ] } },
{ "type": "Feature", "properties": { "field_1": 288, "Venues_id": "552d89b4498ea54018f8654d", "Name": "Tony Perruquers", "lat": 41.406912, "lon": 2.17713, "category": "Tech Startup", "field_7": null }, "geometry": { "type": "Point", "coordinates": [ 2.17713, 41.406912 ] } },
{ "type": "Feature", "properties": { "field_1": 289, "Venues_id": "50eff127e4b0d6592f7917d5", "Name": "Panaworld", "lat": 41.408035003083832, "lon": 2.1775586563427738, "category": "Bakery", "field_7": null }, "geometry": { "type": "Point", "coordinates": [ 2.177558656342774, 41.408035003083832 ] } },
{ "type": "Feature", "properties": { "field_1": 290, "Venues_id": "4ed115f25c5c9528fa0cd346", "Name": "Ferretería Pablos", "lat": 41.407197533957081, "lon": 2.1776354439134193, "category": "Clothing Store", "field_7": null }, "geometry": { "type": "Point", "coordinates": [ 2.177635443913419, 41.407197533957081 ] } },
{ "type": "Feature", "properties": { "field_1": 291, "Venues_id": "54ed000b498e6bc7084bbda1", "Name": "NaLúa", "lat": 41.406904646535182, "lon": 2.1771548900163835, "category": "Bike Shop", "field_7": null }, "geometry": { "type": "Point", "coordinates": [ 2.177154890016384, 41.406904646535182 ] } },
{ "type": "Feature", "properties": { "field_1": 292, "Venues_id": "4e00cafe7d8beaa1649d9a65", "Name": "Tallers Almar", "lat": 41.408264, "lon": 2.178329, "category": "Beach", "field_7": null }, "geometry": { "type": "Point", "coordinates": [ 2.178329, 41.408264 ] } },
{ "type": "Feature", "properties": { "field_1": 293, "Venues_id": "4e098d86d4c03ae0b9d735d4", "Name": "Ad Marina", "lat": 41.408417, "lon": 2.177595, "category": "Restaurant", "field_7": null }, "geometry": { "type": "Point", "coordinates": [ 2.177595, 41.408417 ] } },
{ "type": "Feature", "properties": { "field_1": 294, "Venues_id": "54d1b682498e816626ff0006", "Name": "Casa De La Mina", "lat": 41.407827328187373, "lon": 2.1763876621141418, "category": "Hotel", "field_7": null }, "geometry": { "type": "Point", "coordinates": [ 2.176387662114142, 41.407827328187373 ] } },
{ "type": "Feature", "properties": { "field_1": 295, "Venues_id": "4e31a8c881dc2b854ab4b5bb", "Name": "Restaurante k'tamaran", "lat": 41.408681484104058, "lon": 2.1775031089782715, "category": "Beach Bar", "field_7": null }, "geometry": { "type": "Point", "coordinates": [ 2.177503108978271, 41.408681484104058 ] } },
{ "type": "Feature", "properties": { "field_1": 296, "Venues_id": "58446ab8ebf0284fe7716a7f", "Name": "Nino's place", "lat": 41.407335, "lon": 2.175974, "category": "Italian Restaurant", "field_7": null }, "geometry": { "type": "Point", "coordinates": [ 2.175974, 41.407335 ] } },
{ "type": "Feature", "properties": { "field_1": 297, "Venues_id": "57e7b77c498eddfb9265fc7a", "Name": "la xarranca", "lat": 41.408579, "lon": 2.178633, "category": "Tech Startup", "field_7": null }, "geometry": { "type": "Point", "coordinates": [ 2.178633, 41.408579 ] } },
{ "type": "Feature", "properties": { "field_1": 298, "Venues_id": "4fdc401be4b01dfebf56f339", "Name": "Ca'la Carol", "lat": 41.407758618583102, "lon": 2.1787344803658306, "category": "Travel Lounge", "field_7": null }, "geometry": { "type": "Point", "coordinates": [ 2.178734480365831, 41.407758618583102 ] } },
{ "type": "Feature", "properties": { "field_1": 299, "Venues_id": "4f3be4a80cd6979591de0546", "Name": "Atenea", "lat": 41.407377898571916, "lon": 2.1786797048844164, "category": "Mediterranean Restaurant", "field_7": null }, "geometry": { "type": "Point", "coordinates": [ 2.178679704884416, 41.407377898571916 ] } },
{ "type": "Feature", "properties": { "field_1": 300, "Venues_id": "4f60f2544fc6f460d33c27cd", "Name": "Maribé Unisex Peluqueria", "lat": 41.408359613564919, "lon": 2.177889347076416, "category": "Cafeteria", "field_7": null }, "geometry": { "type": "Point", "coordinates": [ 2.177889347076416, 41.408359613564919 ] } },
{ "type": "Feature", "properties": { "field_1": 301, "Venues_id": "5239d84611d2c0c9bf5c1ac1", "Name": "Centre de terapia breu barcelona", "lat": 41.406870003822299, "lon": 2.1776402431409321, "category": "Building", "field_7": null }, "geometry": { "type": "Point", "coordinates": [ 2.177640243140932, 41.406870003822299 ] } },
{ "type": "Feature", "properties": { "field_1": 302, "Venues_id": "4e831e6ab634192147ff4540", "Name": "Cal Felix&Ana", "lat": 41.407011, "lon": 2.177885, "category": "Building", "field_7": null }, "geometry": { "type": "Point", "coordinates": [ 2.177885, 41.407011 ] } },
{ "type": "Feature", "properties": { "field_1": 303, "Venues_id": "50ec64ebe4b0348f594c4a20", "Name": "YUN HUI", "lat": 41.407464492378708, "lon": 2.1766180192285658, "category": "Restaurant", "field_7": null }, "geometry": { "type": "Point", "coordinates": [ 2.176618019228566, 41.407464492378708 ] } },
{ "type": "Feature", "properties": { "field_1": 304, "Venues_id": "4fd9e64ce4b035bc35936ab8", "Name": "DEHARO diseño", "lat": 41.40814208984375, "lon": 2.1762509346008301, "category": "Beach", "field_7": null }, "geometry": { "type": "Point", "coordinates": [ 2.17625093460083, 41.40814208984375 ] } },
{ "type": "Feature", "properties": { "field_1": 305, "Venues_id": "51d2b5e7498ec56e99cfe110", "Name": "peluqueria stylro", "lat": 41.408557891845703, "lon": 2.177016019821167, "category": "Hotel Bar", "field_7": null }, "geometry": { "type": "Point", "coordinates": [ 2.177016019821167, 41.408557891845703 ] } },
{ "type": "Feature", "properties": { "field_1": 306, "Venues_id": "4cba205143ec6dcb2b43a231", "Name": "Can Alcón", "lat": 41.406991, "lon": 2.176539, "category": "Convention Center", "field_7": null }, "geometry": { "type": "Point", "coordinates": [ 2.176539, 41.406991 ] } },
{ "type": "Feature", "properties": { "field_1": 307, "Venues_id": "5431dad6498e0f6206f1fd43", "Name": "Sweetroom B&B", "lat": 41.407286, "lon": 2.175889, "category": "Rental Car Location", "field_7": null }, "geometry": { "type": "Point", "coordinates": [ 2.175889, 41.407286 ] } },
{ "type": "Feature", "properties": { "field_1": 308, "Venues_id": "5116137be4b02a68cf38ff95", "Name": "Пятачок", "lat": 41.407726739358218, "lon": 2.1754998384260316, "category": "Office", "field_7": null }, "geometry": { "type": "Point", "coordinates": [ 2.175499838426032, 41.407726739358218 ] } },
{ "type": "Feature", "properties": { "field_1": 309, "Venues_id": "50cb616be4b0cbbcc8b62497", "Name": "coral peluqueria", "lat": 41.407505035400391, "lon": 2.1760909557342529, "category": "Science Museum", "field_7": null }, "geometry": { "type": "Point", "coordinates": [ 2.176090955734253, 41.407505035400391 ] } },
{ "type": "Feature", "properties": { "field_1": 310, "Venues_id": "4dddfdf1e4cd191273768556", "Name": "Dinaptica - Infolan", "lat": 41.408779621124268, "lon": 2.178313136100769, "category": "Hotel Pool", "field_7": null }, "geometry": { "type": "Point", "coordinates": [ 2.178313136100769, 41.408779621124268 ] } },
{ "type": "Feature", "properties": { "field_1": 311, "Venues_id": "535b5cb6498ebcf553084c1c", "Name": "Artesans del pa", "lat": 41.40667724609375, "lon": 2.1774380207061768, "category": "Housing Development", "field_7": null }, "geometry": { "type": "Point", "coordinates": [ 2.177438020706177, 41.40667724609375 ] } },
{ "type": "Feature", "properties": { "field_1": 312, "Venues_id": "4dcc1d59d22d7ffe9d3dbe80", "Name": "Humana", "lat": 41.406659704520123, "lon": 2.1773234952221747, "category": "Convention Center", "field_7": null }, "geometry": { "type": "Point", "coordinates": [ 2.177323495222175, 41.406659704520123 ] } },
{ "type": "Feature", "properties": { "field_1": 313, "Venues_id": "504639f7e4b02712ccabe6e5", "Name": "Bicis Tirli", "lat": 41.408386968208205, "lon": 2.1780769749855482, "category": "Athletics & Sports", "field_7": null }, "geometry": { "type": "Point", "coordinates": [ 2.178076974985548, 41.408386968208205 ] } },
{ "type": "Feature", "properties": { "field_1": 314, "Venues_id": "4f7d73b66d86fe2cd8c4e405", "Name": "SIXT Alquiler De Coches | Barcelona Diagonal Mar", "lat": 41.40903, "lon": 2.21734, "category": "Skate Park", "field_7": null }, "geometry": { "type": "Point", "coordinates": [ 2.21734, 41.40903 ] } },
{ "type": "Feature", "properties": { "field_1": 315, "Venues_id": "4c72f81e376da09321e2a7c6", "Name": "Illa del Llac", "lat": 41.407863147893806, "lon": 2.216427716155366, "category": "Coffee Shop", "field_7": null }, "geometry": { "type": "Point", "coordinates": [ 2.216427716155366, 41.407863147893806 ] } },
{ "type": "Feature", "properties": { "field_1": 316, "Venues_id": "522b9ce211d20747f42c6ebb", "Name": "Lobby Bar Hilton Diagonal Mar", "lat": 41.408710186681667, "lon": 2.217528479709034, "category": "Gym \/ Fitness Center", "field_7": null }, "geometry": { "type": "Point", "coordinates": [ 2.217528479709034, 41.408710186681667 ] } },
{ "type": "Feature", "properties": { "field_1": 317, "Venues_id": "4e5fdca7fa7631dc4098da12", "Name": "La Tagliatella", "lat": 41.408662427533017, "lon": 2.2169417586329709, "category": "Food", "field_7": null }, "geometry": { "type": "Point", "coordinates": [ 2.216941758632971, 41.408662427533017 ] } },
{ "type": "Feature", "properties": { "field_1": 318, "Venues_id": "4c14e39ba9c220a1bb2b589d", "Name": "Pappa Pomodoro", "lat": 41.408958684002016, "lon": 2.2155734886128258, "category": "Office", "field_7": null }, "geometry": { "type": "Point", "coordinates": [ 2.215573488612826, 41.408958684002016 ] } },
{ "type": "Feature", "properties": { "field_1": 319, "Venues_id": "5337f039498e2dedbc897cb7", "Name": "Crazycorp", "lat": 41.416311087255401, "lon": 2.1772105553091685, "category": "Dentist's Office", "field_7": null }, "geometry": { "type": "Point", "coordinates": [ 2.177210555309169, 41.416311087255401 ] } },
{ "type": "Feature", "properties": { "field_1": 320, "Venues_id": "50cc5b10e4b0de30571ec902", "Name": "Kaina", "lat": 41.415479322098705, "lon": 2.1771507245691719, "category": "Advertising Agency", "field_7": null }, "geometry": { "type": "Point", "coordinates": [ 2.177150724569172, 41.415479322098705 ] } },
{ "type": "Feature", "properties": { "field_1": 321, "Venues_id": "4ee7111bd3e34ebcf244ff23", "Name": "Bar Restaurante Les Nines", "lat": 41.415923991493756, "lon": 2.1774361690356705, "category": "Coworking Space", "field_7": null }, "geometry": { "type": "Point", "coordinates": [ 2.17743616903567, 41.415923991493756 ] } },
{ "type": "Feature", "properties": { "field_1": 322, "Venues_id": "51b3309a498e0fed5bb16f19", "Name": "Fruiteria Sabo", "lat": 41.416002674666174, "lon": 2.1767715912928707, "category": "Hot Dog Joint", "field_7": null }, "geometry": { "type": "Point", "coordinates": [ 2.176771591292871, 41.416002674666174 ] } },
{ "type": "Feature", "properties": { "field_1": 323, "Venues_id": "4cb35805cbab236a9b39b773", "Name": "Bar Tantra", "lat": 41.416144, "lon": 2.17707725, "category": "Swiss Restaurant", "field_7": null }, "geometry": { "type": "Point", "coordinates": [ 2.17707725, 41.416144 ] } },
{ "type": "Feature", "properties": { "field_1": 324, "Venues_id": "4e92acd96c25b073b7cc8144", "Name": "Via Claret", "lat": 41.415312863045855, "lon": 2.1771891179903329, "category": "Bike Shop", "field_7": null }, "geometry": { "type": "Point", "coordinates": [ 2.177189117990333, 41.415312863045855 ] } },
{ "type": "Feature", "properties": { "field_1": 325, "Venues_id": "4ebc06796da1686824d00c8d", "Name": "Va de Bàrum", "lat": 41.415395685840693, "lon": 2.1755854283828771, "category": "Grocery Store", "field_7": null }, "geometry": { "type": "Point", "coordinates": [ 2.175585428382877, 41.415395685840693 ] } },
{ "type": "Feature", "properties": { "field_1": 326, "Venues_id": "4f3a2147e4b0a4d4435732f7", "Name": "SPS - Sindicat Profesional De Seguretat Privada", "lat": 41.415959047142721, "lon": 2.1775346602537988, "category": "Tapas Restaurant", "field_7": null }, "geometry": { "type": "Point", "coordinates": [ 2.177534660253799, 41.415959047142721 ] } },