{
"type": "FeatureCollection",
"name": "restaurants_tripadvisor",
"crs": { "type": "name", "properties": { "name": "urn:ogc:def:crs:OGC:1.3:CRS84" } },
"features": [
{ "type": "Feature", "properties": { "field_1": 0, "Unnamed: 0": 5011, "title": "La Bodeguita del Poble", "icon_prize": null, "average_price": "Dinner", "users_rate": 2.5, "number_reviews": null, "street": "Avinguda Marques de Comillas, 13", "address_formatted": "Catalonia, Spain", "lat": 41.66667, "lon": 2.0 }, "geometry": { "type": "Point", "coordinates": [ 2.0, 41.66667 ] } },
{ "type": "Feature", "properties": { "field_1": 1, "Unnamed: 0": 5012, "title": "Cafeparis", "icon_prize": null, "average_price": "Spanish", "users_rate": 4.0, "number_reviews": null, "street": "Floridablanca 102", "address_formatted": "Floridablanca, carrer de Floridablanca, 08914 Badalona, Spain", "lat": 41.4408541, "lon": 2.2255462 }, "geometry": { "type": "Point", "coordinates": [ 2.2255462, 41.4408541 ] } },
{ "type": "Feature", "properties": { "field_1": 2, "Unnamed: 0": 5013, "title": "TinGana", "icon_prize": null, "average_price": "€20 - €30", "users_rate": 3.5, "number_reviews": null, "street": "Carrer D'Enric Granados, 149", "address_formatted": "Carrer d'Enric Granados, 149, Barcelona, Spain", "lat": 41.3943389, "lon": 2.1533741 }, "geometry": { "type": "Point", "coordinates": [ 2.1533741, 41.3943389 ] } },
{ "type": "Feature", "properties": { "field_1": 3, "Unnamed: 0": 5014, "title": "Restaurante La Vida", "icon_prize": null, "average_price": "€8 - €120", "users_rate": 3.0, "number_reviews": null, "street": "Paseo joan de borbo, 31, Bajos", "address_formatted": "Catalonia, Spain", "lat": 41.66667, "lon": 2.0 }, "geometry": { "type": "Point", "coordinates": [ 2.0, 41.66667 ] } },
{ "type": "Feature", "properties": { "field_1": 4, "Unnamed: 0": 5015, "title": "Deleit Sushi Sants", "icon_prize": null, "average_price": "Sushi", "users_rate": 3.0, "number_reviews": null, "street": "Carrer de la Creu Coberta, 50", "address_formatted": "Carrer de la Creu Coberta, 8015 Barcelona, Spain", "lat": 41.3750783, "lon": 2.1482657 }, "geometry": { "type": "Point", "coordinates": [ 2.1482657, 41.3750783 ] } },
{ "type": "Feature", "properties": { "field_1": 5, "Unnamed: 0": 5016, "title": "Restaurante Mango", "icon_prize": null, "average_price": "Seafood, Spanish, Mediterranean, European", "users_rate": 3.0, "number_reviews": null, "street": "Maritim", "address_formatted": "Maritim, Passeig Marítim, 08380 Malgrat de Mar, Spain", "lat": 41.6398658, "lon": 2.7361958 }, "geometry": { "type": "Point", "coordinates": [ 2.7361958, 41.6398658 ] } },
{ "type": "Feature", "properties": { "field_1": 6, "Unnamed: 0": 5017, "title": "Taverne Del Besbe Barcelone", "icon_prize": null, "average_price": "Gastropub", "users_rate": 3.0, "number_reviews": null, "street": "Via laiteniana barcelona", "address_formatted": "Barcelona, Catalonia, Spain", "lat": 41.38879, "lon": 2.15899 }, "geometry": { "type": "Point", "coordinates": [ 2.15899, 41.38879 ] } },
{ "type": "Feature", "properties": { "field_1": 7, "Unnamed: 0": 5018, "title": "Adlivitum", "icon_prize": null, "average_price": "Spanish", "users_rate": 2.5, "number_reviews": null, "street": "Carrer Diputacio, 319", "address_formatted": "Carrer Diputacio, 08780 el Papiol, Spain", "lat": 41.4399999, "lon": 2.0118282 }, "geometry": { "type": "Point", "coordinates": [ 2.0118282, 41.4399999 ] } },
{ "type": "Feature", "properties": { "field_1": 8, "Unnamed: 0": 5019, "title": "Restaurante La Granja Biologica", "icon_prize": null, "average_price": null, "users_rate": 2.5, "number_reviews": null, "street": "Sant Eusebi, 64", "address_formatted": "Carrer de Sant Eusebi, 08006 Barcelona, Spain", "lat": 41.4017157, "lon": 2.1496863 }, "geometry": { "type": "Point", "coordinates": [ 2.1496863, 41.4017157 ] } },
{ "type": "Feature", "properties": { "field_1": 9, "Unnamed: 0": 5020, "title": "Cafe De La Radio", "icon_prize": null, "average_price": null, "users_rate": 2.5, "number_reviews": null, "street": "Carrer Casp, 45", "address_formatted": "Carrer de Casp, 08013 Barcelona, Spain", "lat": 41.3974988, "lon": 2.1815631 }, "geometry": { "type": "Point", "coordinates": [ 2.1815631, 41.3974988 ] } },
{ "type": "Feature", "properties": { "field_1": 10, "Unnamed: 0": 5021, "title": "Panaria Ricart 24-26", "icon_prize": null, "average_price": "€3 - €6", "users_rate": 3.0, "number_reviews": null, "street": "Carrer Ricart 24-26, 08930, Sant Adrian de Besos. Barcelona", "address_formatted": "Besòs, Catalonia, Spain", "lat": 41.421, "lon": 2.20974 }, "geometry": { "type": "Point", "coordinates": [ 2.20974, 41.421 ] } },
{ "type": "Feature", "properties": { "field_1": 11, "Unnamed: 0": 5023, "title": "Vins & teka", "icon_prize": null, "average_price": "€3 - €22", "users_rate": 4.5, "number_reviews": null, "street": "Diagonal Avenue 460", "address_formatted": "Diagonal, Passeig de Gràcia, 08008 Barcelona, Spain", "lat": 41.3955498, "lon": 2.1604573 }, "geometry": { "type": "Point", "coordinates": [ 2.1604573, 41.3955498 ] } },
{ "type": "Feature", "properties": { "field_1": 12, "Unnamed: 0": 5024, "title": "Panchito", "icon_prize": null, "average_price": "€15 - €30", "users_rate": 3.0, "number_reviews": null, "street": "C\/ Espalter, 1", "address_formatted": "Carrer de Joaquim Espalter, 08870 Sitges, Spain", "lat": 41.2364768, "lon": 1.8057571 }, "geometry": { "type": "Point", "coordinates": [ 1.8057571, 41.2364768 ] } },
{ "type": "Feature", "properties": { "field_1": 13, "Unnamed: 0": 5025, "title": "Ca La Yaya", "icon_prize": null, "average_price": "Spanish", "users_rate": 3.5, "number_reviews": null, "street": "Carrer De Valencia, 59", "address_formatted": "Carrer de València, 59, 08088 Barcelona, Spain", "lat": 41.3826074, "lon": 2.1495797 }, "geometry": { "type": "Point", "coordinates": [ 2.1495797, 41.3826074 ] } },
{ "type": "Feature", "properties": { "field_1": 14, "Unnamed: 0": 5026, "title": "Mediterraneo Restaurante", "icon_prize": null, "average_price": "Moroccan, Mediterranean", "users_rate": 3.0, "number_reviews": null, "street": "Carrer Hopital 101 a", "address_formatted": "Catalonia, Spain", "lat": 41.66667, "lon": 2.0 }, "geometry": { "type": "Point", "coordinates": [ 2.0, 41.66667 ] } },
{ "type": "Feature", "properties": { "field_1": 15, "Unnamed: 0": 5027, "title": "Santisimo Agave", "icon_prize": null, "average_price": "€10 - €20", "users_rate": 3.0, "number_reviews": null, "street": "Viladomat, 49", "address_formatted": "Viladomat, Plaça de l'Ajuntament, 08698 la Nou de Berguedà, Spain", "lat": 42.1671835, "lon": 1.884449 }, "geometry": { "type": "Point", "coordinates": [ 1.884449, 42.1671835 ] } },
{ "type": "Feature", "properties": { "field_1": 16, "Unnamed: 0": 5028, "title": "Atrapatapa Bar de Tapas", "icon_prize": null, "average_price": "Spanish", "users_rate": 2.5, "number_reviews": null, "street": "Urgell, 77", "address_formatted": "Urgell, Ronda de Sant Antoni, 08011 Barcelona, Spain", "lat": 41.3789998, "lon": 2.1630139 }, "geometry": { "type": "Point", "coordinates": [ 2.1630139, 41.3789998 ] } },
{ "type": "Feature", "properties": { "field_1": 17, "Unnamed: 0": 5029, "title": "Divan", "icon_prize": null, "average_price": "Reservations", "users_rate": 3.0, "number_reviews": null, "street": "Av. de Gaudi", "address_formatted": "Avinguda de Gaudí, Barcelona, Spain", "lat": 41.4070281, "lon": 2.1744033 }, "geometry": { "type": "Point", "coordinates": [ 2.1744033, 41.4070281 ] } },
{ "type": "Feature", "properties": { "field_1": 18, "Unnamed: 0": 5030, "title": "Don baco", "icon_prize": null, "average_price": "Spanish", "users_rate": 3.0, "number_reviews": null, "street": "Calle Napoles 331", "address_formatted": "Cal Xic Montesell, Vallgorguina, Catalonia, Spain", "lat": 41.6540336, "lon": 2.508359 }, "geometry": { "type": "Point", "coordinates": [ 2.508359, 41.6540336 ] } },
{ "type": "Feature", "properties": { "field_1": 19, "Unnamed: 0": 5031, "title": "Forn Colon", "icon_prize": null, "average_price": "Breakfast, Lunch, Dinner", "users_rate": 3.0, "number_reviews": null, "street": "Carrer de Mallorca, 599", "address_formatted": "Carrer de Mallorca, 599, 08026 Barcelona, Spain", "lat": 41.4116178, "lon": 2.1860795 }, "geometry": { "type": "Point", "coordinates": [ 2.1860795, 41.4116178 ] } },
{ "type": "Feature", "properties": { "field_1": 20, "Unnamed: 0": 5032, "title": "Pool & Beer", "icon_prize": null, "average_price": "Bar, Pub", "users_rate": 3.0, "number_reviews": null, "street": "Caspe 186", "address_formatted": "Catalonia, Spain", "lat": 41.66667, "lon": 2.0 }, "geometry": { "type": "Point", "coordinates": [ 2.0, 41.66667 ] } },
{ "type": "Feature", "properties": { "field_1": 21, "Unnamed: 0": 5033, "title": "Historia Resto Lounge", "icon_prize": null, "average_price": null, "users_rate": 2.0, "number_reviews": null, "street": "Rue de la Malga", "address_formatted": "Catalonia, Spain", "lat": 41.66667, "lon": 2.0 }, "geometry": { "type": "Point", "coordinates": [ 2.0, 41.66667 ] } },
{ "type": "Feature", "properties": { "field_1": 22, "Unnamed: 0": 5034, "title": "Opium Cinema", "icon_prize": null, "average_price": "€20 - €42", "users_rate": 2.5, "number_reviews": null, "street": "193 - 197 Paris", "address_formatted": "carrer Paris, 08110 Montcada i Reixac, Spain", "lat": 41.4815483, "lon": 2.1895314 }, "geometry": { "type": "Point", "coordinates": [ 2.1895314, 41.4815483 ] } },
{ "type": "Feature", "properties": { "field_1": 23, "Unnamed: 0": 5035, "title": "Jaleo", "icon_prize": null, "average_price": "€15 - €40", "users_rate": 3.0, "number_reviews": null, "street": "Calle Tuset 5-11", "address_formatted": "Carrer de Tuset, 08006 Barcelona, Spain", "lat": 41.3956711, "lon": 2.1523527 }, "geometry": { "type": "Point", "coordinates": [ 2.1523527, 41.3956711 ] } },
{ "type": "Feature", "properties": { "field_1": 24, "Unnamed: 0": 5036, "title": "Bar Restaurante Entrepans", "icon_prize": null, "average_price": "€4 - €9", "users_rate": 3.0, "number_reviews": null, "street": "Calle Rosellon, 22", "address_formatted": "Catalonia, Spain", "lat": 41.66667, "lon": 2.0 }, "geometry": { "type": "Point", "coordinates": [ 2.0, 41.66667 ] } },
{ "type": "Feature", "properties": { "field_1": 25, "Unnamed: 0": 5037, "title": "Pans & Company", "icon_prize": null, "average_price": "€3 - €6", "users_rate": 3.0, "number_reviews": null, "street": "Rambla de Canaletes, 123", "address_formatted": "La Rambla - Font de Canaletes, La Rambla, 08001 Barcelona, Spain", "lat": 41.3853035, "lon": 2.1699586 }, "geometry": { "type": "Point", "coordinates": [ 2.1699586, 41.3853035 ] } },
{ "type": "Feature", "properties": { "field_1": 26, "Unnamed: 0": 5038, "title": "Restaurante Hunter", "icon_prize": null, "average_price": "Spanish", "users_rate": 3.0, "number_reviews": null, "street": "Placa de Sant Josep Oriol, 4", "address_formatted": "Plaça de Sant Josep Oriol, Barcelona, Spain", "lat": 41.3823388, "lon": 2.1741475 }, "geometry": { "type": "Point", "coordinates": [ 2.1741475, 41.3823388 ] } },
{ "type": "Feature", "properties": { "field_1": 27, "Unnamed: 0": 5039, "title": "Bar Versalles", "icon_prize": null, "average_price": "Spanish", "users_rate": 3.0, "number_reviews": null, "street": "Alfambra, 14", "address_formatted": "Alfambra, Carrer de Trias i Giró, 08034 Barcelona, Spain", "lat": 41.3862381, "lon": 2.1124486 }, "geometry": { "type": "Point", "coordinates": [ 2.1124486, 41.3862381 ] } },
{ "type": "Feature", "properties": { "field_1": 28, "Unnamed: 0": 5040, "title": "Restaurante Hachi", "icon_prize": null, "average_price": "€10 - €15", "users_rate": 4.5, "number_reviews": null, "street": "Carrer del Bruc, 70", "address_formatted": "Carrer del Bruc, 70, 08923 Santa Coloma de Gramenet, Spain", "lat": 41.4475787, "lon": 2.2187685 }, "geometry": { "type": "Point", "coordinates": [ 2.2187685, 41.4475787 ] } },
{ "type": "Feature", "properties": { "field_1": 29, "Unnamed: 0": 5041, "title": "Bonastre", "icon_prize": null, "average_price": "Cafe", "users_rate": 3.0, "number_reviews": null, "street": "Av. de Mistral, 10", "address_formatted": "Condonia.com, Avinguda de Mistral, 10, 08015 Barcelona, Spain", "lat": 41.3775301, "lon": 2.1588625 }, "geometry": { "type": "Point", "coordinates": [ 2.1588625, 41.3775301 ] } },
{ "type": "Feature", "properties": { "field_1": 30, "Unnamed: 0": 5042, "title": "Pasta Nostra - Villarroel", "icon_prize": null, "average_price": "€30 - €50", "users_rate": 3.0, "number_reviews": null, "street": "Villarroel 189", "address_formatted": "La Villarroel, Carrer de Villarroel, 87, 08011 Barcelona, Spain", "lat": 41.3845152, "lon": 2.1573507 }, "geometry": { "type": "Point", "coordinates": [ 2.1573507, 41.3845152 ] } },
{ "type": "Feature", "properties": { "field_1": 31, "Unnamed: 0": 5043, "title": "Petits Plaers", "icon_prize": null, "average_price": "Spanish", "users_rate": 2.0, "number_reviews": null, "street": "130 Lope De Vega", "address_formatted": "Catalonia, Spain", "lat": 41.66667, "lon": 2.0 }, "geometry": { "type": "Point", "coordinates": [ 2.0, 41.66667 ] } },
{ "type": "Feature", "properties": { "field_1": 32, "Unnamed: 0": 5044, "title": "Domino's Pizza", "icon_prize": null, "average_price": "Pizza, Fast Food", "users_rate": 3.0, "number_reviews": null, "street": "Carrer Sepulveda, 38", "address_formatted": "Carrer de Sepúlveda, 08015 Barcelona, Spain", "lat": 41.3803469, "lon": 2.1586871 }, "geometry": { "type": "Point", "coordinates": [ 2.1586871, 41.3803469 ] } },
{ "type": "Feature", "properties": { "field_1": 33, "Unnamed: 0": 5045, "title": "Tra.Llers", "icon_prize": null, "average_price": "Spanish, Mediterranean, European", "users_rate": 3.0, "number_reviews": null, "street": "Carrer Tallers, 39-41", "address_formatted": "Carrer Tallers, 08570 Torelló, Spain", "lat": 42.0489229, "lon": 2.2741805 }, "geometry": { "type": "Point", "coordinates": [ 2.2741805, 42.0489229 ] } },
{ "type": "Feature", "properties": { "field_1": 34, "Unnamed: 0": 5046, "title": "Restaurante BJ", "icon_prize": null, "average_price": "Breakfast, Lunch, Dinner, Brunch, Drinks", "users_rate": 3.0, "number_reviews": null, "street": "Llull, 13", "address_formatted": "Carrer de Llull, 13, 08005 Barcelona, Spain", "lat": 41.3912829, "lon": 2.1887254 }, "geometry": { "type": "Point", "coordinates": [ 2.1887254, 41.3912829 ] } },
{ "type": "Feature", "properties": { "field_1": 35, "Unnamed: 0": 5047, "title": "Chun", "icon_prize": null, "average_price": "Chinese, Japanese, Sushi, Asian", "users_rate": 3.0, "number_reviews": null, "street": "Carrer Buenos Aires 12", "address_formatted": "Carrer Buenos Aires, 08395 Sant Pol de Mar, Spain", "lat": 41.6030343, "lon": 2.6242583 }, "geometry": { "type": "Point", "coordinates": [ 2.6242583, 41.6030343 ] } },
{ "type": "Feature", "properties": { "field_1": 36, "Unnamed: 0": 5048, "title": "Black Velvet Bar", "icon_prize": null, "average_price": "€3 - €30", "users_rate": 4.5, "number_reviews": null, "street": "Nou de la Rambla 130", "address_formatted": "Nou de la Rambla, Avinguda del Paral·lel, 08001 Barcelona, Spain", "lat": 41.3750759, "lon": 2.1702821 }, "geometry": { "type": "Point", "coordinates": [ 2.1702821, 41.3750759 ] } },
{ "type": "Feature", "properties": { "field_1": 37, "Unnamed: 0": 5049, "title": "Bolet - Cuina Feta", "icon_prize": null, "average_price": null, "users_rate": 3.0, "number_reviews": null, "street": "Passeig Reina Elisenda de Montcada, 10", "address_formatted": "Montcada i Reixac, Catalonia, Spain", "lat": 41.48333, "lon": 2.18333 }, "geometry": { "type": "Point", "coordinates": [ 2.18333, 41.48333 ] } },
{ "type": "Feature", "properties": { "field_1": 38, "Unnamed: 0": 5050, "title": "Pans & Company", "icon_prize": null, "average_price": "Fast Food", "users_rate": 3.0, "number_reviews": null, "street": "Travessera de gracia, 29", "address_formatted": "Farmàcia Santaló, Travessera de Gràcia, 23, 29, 08036 Barcelona, Spain", "lat": 41.394748, "lon": 2.1468139 }, "geometry": { "type": "Point", "coordinates": [ 2.1468139, 41.394748 ] } },
{ "type": "Feature", "properties": { "field_1": 39, "Unnamed: 0": 5051, "title": "Fish Corner", "icon_prize": null, "average_price": "Seafood, Mediterranean, Spanish", "users_rate": 3.0, "number_reviews": null, "street": "Centro Comercial Les Glories", "address_formatted": "Glòries, Catalonia, Spain", "lat": 41.4031, "lon": 2.18699 }, "geometry": { "type": "Point", "coordinates": [ 2.18699, 41.4031 ] } },
{ "type": "Feature", "properties": { "field_1": 40, "Unnamed: 0": 5052, "title": "Wan Li Yuan", "icon_prize": null, "average_price": "Chinese", "users_rate": 3.0, "number_reviews": null, "street": "122 Carrer de Viladomat", "address_formatted": "Carrer de Viladomat, 122, 08015 Barcelona, Spain", "lat": 41.3809229, "lon": 2.1560693 }, "geometry": { "type": "Point", "coordinates": [ 2.1560693, 41.3809229 ] } },
{ "type": "Feature", "properties": { "field_1": 41, "Unnamed: 0": 5053, "title": "Restaurante Campo", "icon_prize": null, "average_price": "Chinese", "users_rate": 2.0, "number_reviews": null, "street": "Londres, 22", "address_formatted": "Londres, Carrer de Mallorca, 532, 8025 Barcelona, Spain", "lat": 41.4083463, "lon": 2.1821202 }, "geometry": { "type": "Point", "coordinates": [ 2.1821202, 41.4083463 ] } },
{ "type": "Feature", "properties": { "field_1": 42, "Unnamed: 0": 5054, "title": "Burger King", "icon_prize": null, "average_price": "Fast Food", "users_rate": 3.0, "number_reviews": null, "street": "Calle Salvador Espriu, 61", "address_formatted": "Carrer d'en Salvador Espriu, 08461 Santa Maria de Palautordera, Spain", "lat": 41.6941754, "lon": 2.4339404 }, "geometry": { "type": "Point", "coordinates": [ 2.4339404, 41.6941754 ] } },
{ "type": "Feature", "properties": { "field_1": 43, "Unnamed: 0": 5055, "title": "Atrium", "icon_prize": null, "average_price": "Mediterranean, European, Spanish", "users_rate": 3.0, "number_reviews": null, "street": "Rambla de Poblenou, 142", "address_formatted": "Rambla del Poblenou, 08018 Barcelona, Spain", "lat": 41.403432, "lon": 2.1980044 }, "geometry": { "type": "Point", "coordinates": [ 2.1980044, 41.403432 ] } },
{ "type": "Feature", "properties": { "field_1": 44, "Unnamed: 0": 5056, "title": "Meat Corner", "icon_prize": null, "average_price": "Mediterranean, European, Spanish", "users_rate": 3.0, "number_reviews": null, "street": "Avinguda Diagonal, 208", "address_formatted": "Glòries Multicines, Avinguda Diagonal, 208, 08018 Barcelona, Spain", "lat": 41.4053714, "lon": 2.1928801 }, "geometry": { "type": "Point", "coordinates": [ 2.1928801, 41.4053714 ] } },
{ "type": "Feature", "properties": { "field_1": 45, "Unnamed: 0": 5057, "title": "El Chiringuio Group Barcelona Beach Playa de Sant Sebastian", "icon_prize": null, "average_price": "€10 - €30", "users_rate": 3.0, "number_reviews": null, "street": "Ronda litoral", "address_formatted": "Ronda Litoral, 08080 Barcelona, Spain", "lat": 41.33944, "lon": 2.1173709 }, "geometry": { "type": "Point", "coordinates": [ 2.1173709, 41.33944 ] } },
{ "type": "Feature", "properties": { "field_1": 46, "Unnamed: 0": 5058, "title": "Atame", "icon_prize": null, "average_price": null, "users_rate": 3.0, "number_reviews": null, "street": "Carrer del Consell de Cent, 257", "address_formatted": "Atame, Carrer del Consell de Cent, 257, 08011 Barcelona, Spain", "lat": 41.3869204, "lon": 2.1599135 }, "geometry": { "type": "Point", "coordinates": [ 2.1599135, 41.3869204 ] } },
{ "type": "Feature", "properties": { "field_1": 47, "Unnamed: 0": 5059, "title": "Bodega Del Fuegos", "icon_prize": null, "average_price": "€3 - €100", "users_rate": 4.5, "number_reviews": null, "street": "Vilardell, n0 3", "address_formatted": "Vilardell, la Quar, Catalonia, Spain", "lat": 42.0941893, "lon": 1.9977589 }, "geometry": { "type": "Point", "coordinates": [ 1.9977589, 42.0941893 ] } },
{ "type": "Feature", "properties": { "field_1": 48, "Unnamed: 0": 5060, "title": "Sinner", "icon_prize": null, "average_price": "Mediterranean, Spanish", "users_rate": 3.0, "number_reviews": null, "street": "C\/ Tuset 3", "address_formatted": "Carrer de Tuset, Enerside Energy, 3, 08006 Barcelona, Spain", "lat": 41.3955245, "lon": 2.1521109 }, "geometry": { "type": "Point", "coordinates": [ 2.1521109, 41.3955245 ] } },
{ "type": "Feature", "properties": { "field_1": 49, "Unnamed: 0": 5061, "title": "PaTapas", "icon_prize": null, "average_price": "Mediterranean, Spanish", "users_rate": 3.0, "number_reviews": null, "street": "Pl San Josep Oriel 2", "address_formatted": "Catalonia, Spain", "lat": 41.66667, "lon": 2.0 }, "geometry": { "type": "Point", "coordinates": [ 2.0, 41.66667 ] } },
{ "type": "Feature", "properties": { "field_1": 50, "Unnamed: 0": 5062, "title": "La Fitora", "icon_prize": null, "average_price": "€30 - €50", "users_rate": 3.0, "number_reviews": null, "street": "Moll de Gregal, 18 - 19", "address_formatted": "Moll de Gregal, 08071 Barcelona, Spain", "lat": 41.3881704, "lon": 2.2008832 }, "geometry": { "type": "Point", "coordinates": [ 2.2008832, 41.3881704 ] } },
{ "type": "Feature", "properties": { "field_1": 51, "Unnamed: 0": 5063, "title": "Cal Tony", "icon_prize": null, "average_price": "Breakfast, Lunch, Dinner", "users_rate": 2.0, "number_reviews": null, "street": "Carrer De Castanys 25", "address_formatted": "Catalonia, Spain", "lat": 41.66667, "lon": 2.0 }, "geometry": { "type": "Point", "coordinates": [ 2.0, 41.66667 ] } },
{ "type": "Feature", "properties": { "field_1": 52, "Unnamed: 0": 5064, "title": "Viridi", "icon_prize": null, "average_price": "€7 - €10", "users_rate": 3.0, "number_reviews": null, "street": "Calle Galileo, 337", "address_formatted": "Galileo, Carrer d'Aribau, 152, 08036 Barcelona, Spain", "lat": 41.3921399, "lon": 2.1545275 }, "geometry": { "type": "Point", "coordinates": [ 2.1545275, 41.3921399 ] } },
{ "type": "Feature", "properties": { "field_1": 53, "Unnamed: 0": 5065, "title": "Paris 182 Pizza House", "icon_prize": null, "average_price": null, "users_rate": 3.0, "number_reviews": null, "street": "Carrer de Paris, 182", "address_formatted": "Carrer de París, 182, 08036 Barcelona, Spain", "lat": 41.3934231, "lon": 2.1533225 }, "geometry": { "type": "Point", "coordinates": [ 2.1533225, 41.3934231 ] } },
{ "type": "Feature", "properties": { "field_1": 54, "Unnamed: 0": 5066, "title": "Boca Loco", "icon_prize": null, "average_price": null, "users_rate": 3.0, "number_reviews": null, "street": "13 av. Francesc Ferre i Guardia", "address_formatted": "Catalonia, Spain", "lat": 41.66667, "lon": 2.0 }, "geometry": { "type": "Point", "coordinates": [ 2.0, 41.66667 ] } },
{ "type": "Feature", "properties": { "field_1": 55, "Unnamed: 0": 5067, "title": "Al-legra", "icon_prize": null, "average_price": "Wine Bar, Spanish", "users_rate": 4.0, "number_reviews": null, "street": "192, Ronda Del Guinardo", "address_formatted": "Ronda del Guinardó, 08025 Barcelona, Spain", "lat": 41.4122063, "lon": 2.1672319 }, "geometry": { "type": "Point", "coordinates": [ 2.1672319, 41.4122063 ] } },
{ "type": "Feature", "properties": { "field_1": 56, "Unnamed: 0": 5068, "title": "La Base by Farre", "icon_prize": null, "average_price": "Seafood, Mediterranean, Spanish, European", "users_rate": 3.0, "number_reviews": null, "street": "Platja Mar Bella. Avda Del Litoral", "address_formatted": "Catalonia, Spain", "lat": 41.66667, "lon": 2.0 }, "geometry": { "type": "Point", "coordinates": [ 2.0, 41.66667 ] } },
{ "type": "Feature", "properties": { "field_1": 57, "Unnamed: 0": 5069, "title": "Rodica's Restaurant & Bar", "icon_prize": null, "average_price": null, "users_rate": 2.5, "number_reviews": null, "street": "Carrer De Sardenya, 551", "address_formatted": "Carrer de Sardenya, 08025 Barcelona, Spain", "lat": 41.4085761, "lon": 2.1664852 }, "geometry": { "type": "Point", "coordinates": [ 2.1664852, 41.4085761 ] } },
{ "type": "Feature", "properties": { "field_1": 58, "Unnamed: 0": 5070, "title": "Restaurante La Cartuja", "icon_prize": null, "average_price": "Mediterranean, European, Spanish", "users_rate": 3.0, "number_reviews": null, "street": "Calle Larrard, 37", "address_formatted": "Carrer de Larrard, 08024 Barcelona, Spain", "lat": 41.4123123, "lon": 2.1539978 }, "geometry": { "type": "Point", "coordinates": [ 2.1539978, 41.4123123 ] } },
{ "type": "Feature", "properties": { "field_1": 59, "Unnamed: 0": 5071, "title": "+Bernat", "icon_prize": null, "average_price": "Mediterranean", "users_rate": 3.5, "number_reviews": null, "street": "Buenos Aires 6-8, 08029", "address_formatted": "08029, Spain", "lat": 41.3888, "lon": 2.159 }, "geometry": { "type": "Point", "coordinates": [ 2.159, 41.3888 ] } },
{ "type": "Feature", "properties": { "field_1": 60, "Unnamed: 0": 5072, "title": "La Muralla", "icon_prize": null, "average_price": "Spanish", "users_rate": 2.5, "number_reviews": null, "street": "Carrer d'Avinyo, 19", "address_formatted": "La Muralla, Carrer d'Avinyó, 19, 08002 Barcelona, Spain", "lat": 41.3810423, "lon": 2.1770783 }, "geometry": { "type": "Point", "coordinates": [ 2.1770783, 41.3810423 ] } },
{ "type": "Feature", "properties": { "field_1": 61, "Unnamed: 0": 5073, "title": "Gran Epoca", "icon_prize": null, "average_price": "Lunch, Dinner", "users_rate": 2.5, "number_reviews": null, "street": "Calle Sepulveda, 94", "address_formatted": "Carrer de Sepúlveda, 08015 Barcelona, Spain", "lat": 41.3803469, "lon": 2.1586871 }, "geometry": { "type": "Point", "coordinates": [ 2.1586871, 41.3803469 ] } },
{ "type": "Feature", "properties": { "field_1": 62, "Unnamed: 0": 5074, "title": "Chiribito", "icon_prize": null, "average_price": "Bar, Pub", "users_rate": 3.0, "number_reviews": null, "street": "Passeig de Fabra i Puig 264", "address_formatted": "Passeig de Fabra i Puig, 08031 Barcelona, Spain", "lat": 41.4303053, "lon": 2.1755374 }, "geometry": { "type": "Point", "coordinates": [ 2.1755374, 41.4303053 ] } },
{ "type": "Feature", "properties": { "field_1": 63, "Unnamed: 0": 5075, "title": "Alexandra", "icon_prize": null, "average_price": null, "users_rate": 2.5, "number_reviews": null, "street": "Diagonal, 287", "address_formatted": "Diagonal, Passeig de Gràcia, 08008 Barcelona, Spain", "lat": 41.3955498, "lon": 2.1604573 }, "geometry": { "type": "Point", "coordinates": [ 2.1604573, 41.3955498 ] } },
{ "type": "Feature", "properties": { "field_1": 64, "Unnamed: 0": 5076, "title": "Frankfurts Leo Boeck", "icon_prize": null, "average_price": "€2 - €6", "users_rate": 2.5, "number_reviews": null, "street": "Calle Alfambra , 20", "address_formatted": "Alfambra, Carrer de Trias i Giró, 08034 Barcelona, Spain", "lat": 41.3862381, "lon": 2.1124486 }, "geometry": { "type": "Point", "coordinates": [ 2.1124486, 41.3862381 ] } },
{ "type": "Feature", "properties": { "field_1": 65, "Unnamed: 0": 5077, "title": "bar cafeteria carlos 1", "icon_prize": null, "average_price": "Spanish", "users_rate": 3.0, "number_reviews": null, "street": "C\/ Marina 168", "address_formatted": "08729 Castellet i la Gornal, Spain", "lat": 41.25977, "lon": 1.6430355 }, "geometry": { "type": "Point", "coordinates": [ 1.6430355, 41.25977 ] } },
{ "type": "Feature", "properties": { "field_1": 66, "Unnamed: 0": 5078, "title": "Burger Bus BCN", "icon_prize": null, "average_price": "€8 - €15", "users_rate": 3.0, "number_reviews": null, "street": "Moll de mestral, 37-38", "address_formatted": "Moll de Mestral, 08071 Barcelona, Spain", "lat": 41.3872066, "lon": 2.1985088 }, "geometry": { "type": "Point", "coordinates": [ 2.1985088, 41.3872066 ] } },
{ "type": "Feature", "properties": { "field_1": 67, "Unnamed: 0": 5079, "title": "Fragua Grill", "icon_prize": null, "average_price": "€4 - €22", "users_rate": 3.0, "number_reviews": null, "street": "15 Rambla del Raval", "address_formatted": "Rambla del Raval, 08001 Barcelona, Spain", "lat": 41.3776776, "lon": 2.1703374 }, "geometry": { "type": "Point", "coordinates": [ 2.1703374, 41.3776776 ] } },
{ "type": "Feature", "properties": { "field_1": 68, "Unnamed: 0": 5080, "title": "Bar - Restaurante Fernando", "icon_prize": null, "average_price": "Spanish", "users_rate": 3.0, "number_reviews": null, "street": "Carrer de Ferran, 31", "address_formatted": "Cafe Hostal Fernando, Carrer de Ferran, 31, 08002 Barcelona, Spain", "lat": 41.3814358, "lon": 2.1757307 }, "geometry": { "type": "Point", "coordinates": [ 2.1757307, 41.3814358 ] } },
{ "type": "Feature", "properties": { "field_1": 69, "Unnamed: 0": 5081, "title": "Bar Restaurant Bauma", "icon_prize": null, "average_price": "Seating, Table Service", "users_rate": 3.0, "number_reviews": null, "street": "Roger de Lluria, 124", "address_formatted": "Roger De Lluria, Carrer de Roger de Llúria, 08010 Barcelona, Spain", "lat": 41.3910629, "lon": 2.1718498 }, "geometry": { "type": "Point", "coordinates": [ 2.1718498, 41.3910629 ] } },
{ "type": "Feature", "properties": { "field_1": 70, "Unnamed: 0": 5082, "title": "Xarcuteria Garciz", "icon_prize": null, "average_price": "Spanish", "users_rate": 2.5, "number_reviews": null, "street": "Escocia, 134", "address_formatted": "Escòcia, Carrer d'Escòcia, 08031 Barcelona, Spain", "lat": 41.4286178, "lon": 2.1794363 }, "geometry": { "type": "Point", "coordinates": [ 2.1794363, 41.4286178 ] } },
{ "type": "Feature", "properties": { "field_1": 71, "Unnamed: 0": 5083, "title": "El Fornet", "icon_prize": null, "average_price": "Breakfast, Lunch, Dinner", "users_rate": 3.0, "number_reviews": null, "street": "Carrer Pujades, 362", "address_formatted": "Carrer Pujades, 08783 Masquefa, Spain", "lat": 41.5043137, "lon": 1.8092083 }, "geometry": { "type": "Point", "coordinates": [ 1.8092083, 41.5043137 ] } },
{ "type": "Feature", "properties": { "field_1": 72, "Unnamed: 0": 5084, "title": "restaurante La Colla", "icon_prize": null, "average_price": "€4 - €12", "users_rate": 2.5, "number_reviews": null, "street": "Carre de L'art", "address_formatted": "Catalonia, Spain", "lat": 41.66667, "lon": 2.0 }, "geometry": { "type": "Point", "coordinates": [ 2.0, 41.66667 ] } },
{ "type": "Feature", "properties": { "field_1": 73, "Unnamed: 0": 5085, "title": "Rodilla", "icon_prize": null, "average_price": "Bar, Cafe, European, Spanish, Pub, Central European", "users_rate": 2.5, "number_reviews": null, "street": "Carrer Pelai 11", "address_formatted": "Carrer Pelai, 08397 Pineda de Mar, Spain", "lat": 41.6199384, "lon": 2.6811168 }, "geometry": { "type": "Point", "coordinates": [ 2.6811168, 41.6199384 ] } },
{ "type": "Feature", "properties": { "field_1": 74, "Unnamed: 0": 5086, "title": "Central Cafe", "icon_prize": null, "average_price": "€5 - €10", "users_rate": 3.0, "number_reviews": null, "street": "Carrer del Doctor Fleming, 19", "address_formatted": "Central Cafè, Carrer del Doctor Fleming, 19, 08017 Barcelona, Spain", "lat": 41.3939234, "lon": 2.1347193 }, "geometry": { "type": "Point", "coordinates": [ 2.1347193, 41.3939234 ] } },
{ "type": "Feature", "properties": { "field_1": 75, "Unnamed: 0": 5087, "title": "22 alf@", "icon_prize": null, "average_price": "€10 - €35", "users_rate": 3.0, "number_reviews": null, "street": "Badajoz 115", "address_formatted": "Carrer de Badajoz, 115, 08018 Barcelona, Spain", "lat": 41.4000572, "lon": 2.1933823 }, "geometry": { "type": "Point", "coordinates": [ 2.1933823, 41.4000572 ] } },
{ "type": "Feature", "properties": { "field_1": 76, "Unnamed: 0": 5088, "title": "El Picot", "icon_prize": null, "average_price": null, "users_rate": 2.5, "number_reviews": null, "street": "Carretera de l'Esglesia, 92", "address_formatted": "Carretera de l'Església, 08196 Barcelona, Spain", "lat": 41.4179023, "lon": 2.1053261 }, "geometry": { "type": "Point", "coordinates": [ 2.1053261, 41.4179023 ] } },
{ "type": "Feature", "properties": { "field_1": 77, "Unnamed: 0": 5089, "title": "Vatua l'Olla", "icon_prize": null, "average_price": "Mediterranean, Spanish, Gastropub", "users_rate": 2.5, "number_reviews": null, "street": "C\/Parlament 26 Local 2", "address_formatted": "Carrer del Parlament, 08015 Barcelona, Spain", "lat": 41.3758931, "lon": 2.161805 }, "geometry": { "type": "Point", "coordinates": [ 2.161805, 41.3758931 ] } },
{ "type": "Feature", "properties": { "field_1": 78, "Unnamed: 0": 5090, "title": "Pans & Company Horta", "icon_prize": null, "average_price": "Mediterranean", "users_rate": 3.0, "number_reviews": null, "street": "C\/ Tajo, 37-43", "address_formatted": "Carrer del Tajo, 08043 Barcelona, Spain", "lat": 41.4295536, "lon": 2.161488 }, "geometry": { "type": "Point", "coordinates": [ 2.161488, 41.4295536 ] } },
{ "type": "Feature", "properties": { "field_1": 79, "Unnamed: 0": 5091, "title": "El petit Buddha", "icon_prize": null, "average_price": "Spanish", "users_rate": 2.5, "number_reviews": null, "street": "Av onze de setembre 265", "address_formatted": "Avinguda Onze de Setembre, 08830 Sant Boi de Llobregat, Spain", "lat": 41.3386284, "lon": 2.0414033 }, "geometry": { "type": "Point", "coordinates": [ 2.0414033, 41.3386284 ] } },
{ "type": "Feature", "properties": { "field_1": 80, "Unnamed: 0": 5092, "title": "Taifeng", "icon_prize": null, "average_price": "Chinese, Sushi, Asian, Japanese", "users_rate": 3.0, "number_reviews": null, "street": "Calle Muntaner, 111", "address_formatted": "Muntaner, Via Augusta, 08021 Barcelona, Spain", "lat": 41.3986188, "lon": 2.1428749 }, "geometry": { "type": "Point", "coordinates": [ 2.1428749, 41.3986188 ] } },
{ "type": "Feature", "properties": { "field_1": 81, "Unnamed: 0": 5093, "title": "Centric Cafe", "icon_prize": null, "average_price": "Bar, Cafe, Fast Food, Pub", "users_rate": 3.0, "number_reviews": null, "street": "Plaza del Sol 14", "address_formatted": "Plaça del Sol, Can Feu, Sabadell, Catalonia, Spain", "lat": 41.5402968, "lon": 2.0969337 }, "geometry": { "type": "Point", "coordinates": [ 2.0969337, 41.5402968 ] } },
{ "type": "Feature", "properties": { "field_1": 82, "Unnamed: 0": 5094, "title": "La Rambla Bar Restaurant", "icon_prize": null, "average_price": null, "users_rate": 2.5, "number_reviews": null, "street": "Rambla de Prim, 19", "address_formatted": "Rambla de Prim, 19, 08019 Barcelona, Spain", "lat": 41.4116133, "lon": 2.218234 }, "geometry": { "type": "Point", "coordinates": [ 2.218234, 41.4116133 ] } },
{ "type": "Feature", "properties": { "field_1": 83, "Unnamed: 0": 5095, "title": "La Bona Cuina", "icon_prize": null, "average_price": "€15 - €40", "users_rate": 2.0, "number_reviews": null, "street": "12 Carrer Pietat", "address_formatted": "Carrer Pietat, 08303 Mataró, Spain", "lat": 41.5485768, "lon": 2.4339469 }, "geometry": { "type": "Point", "coordinates": [ 2.4339469, 41.5485768 ] } },
{ "type": "Feature", "properties": { "field_1": 84, "Unnamed: 0": 5096, "title": "La Forneria", "icon_prize": null, "average_price": "Cafe", "users_rate": 3.0, "number_reviews": null, "street": "carrer Angli, 1", "address_formatted": "Eurostar Anglí, Carrer d'Anglí, 60, 08017 Barcelona, Spain", "lat": 41.4031218, "lon": 2.1231758 }, "geometry": { "type": "Point", "coordinates": [ 2.1231758, 41.4031218 ] } },
{ "type": "Feature", "properties": { "field_1": 85, "Unnamed: 0": 5097, "title": "Las Torres", "icon_prize": null, "average_price": "European", "users_rate": 3.0, "number_reviews": null, "street": "Calle Tarragona 68", "address_formatted": "Carrer Tarragona, 08303 Mataró, Spain", "lat": 41.5439848, "lon": 2.4245662 }, "geometry": { "type": "Point", "coordinates": [ 2.4245662, 41.5439848 ] } },
{ "type": "Feature", "properties": { "field_1": 86, "Unnamed: 0": 5099, "title": "Rotana Barcelona", "icon_prize": null, "average_price": "€5 - €30", "users_rate": 2.0, "number_reviews": null, "street": "C\/ Moll Del Mestral No 34-37", "address_formatted": "Moll de Mestral, 08071 Barcelona, Spain", "lat": 41.3872066, "lon": 2.1985088 }, "geometry": { "type": "Point", "coordinates": [ 2.1985088, 41.3872066 ] } },
{ "type": "Feature", "properties": { "field_1": 87, "Unnamed: 0": 5100, "title": "Estraperlo Barceloneta", "icon_prize": null, "average_price": "Mediterranean, Catalan", "users_rate": 2.5, "number_reviews": null, "street": "Carrer Atlantida, 65", "address_formatted": "carrer de l'Atlàntida, 08923 Badalona, Spain", "lat": 41.4439415, "lon": 2.2190018 }, "geometry": { "type": "Point", "coordinates": [ 2.2190018, 41.4439415 ] } },
{ "type": "Feature", "properties": { "field_1": 88, "Unnamed: 0": 5101, "title": "La encina", "icon_prize": null, "average_price": "€2 - €100", "users_rate": 2.5, "number_reviews": null, "street": "Ronda Sant Pere 72", "address_formatted": "Ronda Sant Pere, Plaça de Catalunya, 08010 Barcelona, Spain", "lat": 41.3877901, "lon": 2.1705608 }, "geometry": { "type": "Point", "coordinates": [ 2.1705608, 41.3877901 ] } },
{ "type": "Feature", "properties": { "field_1": 89, "Unnamed: 0": 5102, "title": "Bar Cafereria Hot Valencia Frankfurt", "icon_prize": null, "average_price": null, "users_rate": 2.0, "number_reviews": null, "street": "Avingua Meridiana 137", "address_formatted": "Catalonia, Spain", "lat": 41.66667, "lon": 2.0 }, "geometry": { "type": "Point", "coordinates": [ 2.0, 41.66667 ] } },
{ "type": "Feature", "properties": { "field_1": 90, "Unnamed: 0": 5103, "title": "Gourmet O'vesuvio", "icon_prize": null, "average_price": "€2 - €70", "users_rate": 4.5, "number_reviews": null, "street": "Avenida Artur Carbonell", "address_formatted": "Catalonia, Spain", "lat": 41.66667, "lon": 2.0 }, "geometry": { "type": "Point", "coordinates": [ 2.0, 41.66667 ] } },
{ "type": "Feature", "properties": { "field_1": 91, "Unnamed: 0": 5104, "title": "Tabernas Gallegas La Maquinista", "icon_prize": null, "average_price": "Seafood, Spanish", "users_rate": 3.0, "number_reviews": null, "street": "Passeig De L'Havana 1", "address_formatted": "Passeig de l'Havana, 08195 Sant Cugat del Vallès, Spain", "lat": 41.4634476, "lon": 2.0628799 }, "geometry": { "type": "Point", "coordinates": [ 2.0628799, 41.4634476 ] } },
{ "type": "Feature", "properties": { "field_1": 92, "Unnamed: 0": 5105, "title": "Romanpizza", "icon_prize": null, "average_price": null, "users_rate": 2.5, "number_reviews": null, "street": "Roses, 59", "address_formatted": "Carrer del Torrent de les Roses, 59, 08034 Barcelona, Spain", "lat": 41.3894703, "lon": 2.1035853 }, "geometry": { "type": "Point", "coordinates": [ 2.1035853, 41.3894703 ] } },
{ "type": "Feature", "properties": { "field_1": 93, "Unnamed: 0": 5106, "title": "Enrich", "icon_prize": null, "average_price": "Mediterranean", "users_rate": 2.5, "number_reviews": null, "street": "Rossello 54", "address_formatted": "Forn Enrich, Carrer del Rosselló, 54, 08029 Barcelona, Spain", "lat": 41.3859711, "lon": 2.1477293 }, "geometry": { "type": "Point", "coordinates": [ 2.1477293, 41.3859711 ] } },
{ "type": "Feature", "properties": { "field_1": 94, "Unnamed: 0": 5107, "title": "Franfurt Berliner", "icon_prize": null, "average_price": "Cafe", "users_rate": 2.5, "number_reviews": null, "street": "Calle de las Navas de Tolosa, 296", "address_formatted": "Carrer de las Navas de Tolosa, 296, 08027 Barcelona, Spain", "lat": 41.4161319, "lon": 2.1859347 }, "geometry": { "type": "Point", "coordinates": [ 2.1859347, 41.4161319 ] } },
{ "type": "Feature", "properties": { "field_1": 95, "Unnamed: 0": 5108, "title": "Joali", "icon_prize": null, "average_price": "Bar, Spanish, Pub", "users_rate": 3.0, "number_reviews": null, "street": "Placa Del Sol 7", "address_formatted": "Plaça del Sol, Can Feu, Sabadell, Catalonia, Spain", "lat": 41.5402968, "lon": 2.0969337 }, "geometry": { "type": "Point", "coordinates": [ 2.0969337, 41.5402968 ] } },
{ "type": "Feature", "properties": { "field_1": 96, "Unnamed: 0": 5109, "title": "Chiringuito Sahara Beach Bar", "icon_prize": null, "average_price": null, "users_rate": 3.0, "number_reviews": null, "street": "Playa San Meguil", "address_formatted": "Catalonia, Spain", "lat": 41.66667, "lon": 2.0 }, "geometry": { "type": "Point", "coordinates": [ 2.0, 41.66667 ] } },
{ "type": "Feature", "properties": { "field_1": 97, "Unnamed: 0": 5110, "title": "El Petit Buda", "icon_prize": null, "average_price": "Thai", "users_rate": 2.5, "number_reviews": null, "street": "Carrer Paris, 38", "address_formatted": "Carrer París, Calaf, Spain", "lat": 41.7345229, "lon": 1.5129803 }, "geometry": { "type": "Point", "coordinates": [ 1.5129803, 41.7345229 ] } },
{ "type": "Feature", "properties": { "field_1": 98, "Unnamed: 0": 5111, "title": "Bar Colombia", "icon_prize": null, "average_price": "Breakfast, Lunch, Dinner", "users_rate": 2.5, "number_reviews": null, "street": "Rambla de Fabra I Puig, 1", "address_formatted": "Rambla de Fabra i Puig, 08030 Barcelona, Spain", "lat": 41.4301798, "lon": 2.1879978 }, "geometry": { "type": "Point", "coordinates": [ 2.1879978, 41.4301798 ] } },
{ "type": "Feature", "properties": { "field_1": 99, "Unnamed: 0": 5112, "title": "4 Latas Granados", "icon_prize": null, "average_price": "Mediterranean, Spanish, European, Catalan", "users_rate": 3.0, "number_reviews": null, "street": "Carrer d'Enric Granados, 56,", "address_formatted": "Carrer d'Enric Granados, 56, 08830 Sant Boi de Llobregat, Spain", "lat": 41.3361129, "lon": 2.0431159 }, "geometry": { "type": "Point", "coordinates": [ 2.0431159, 41.3361129 ] } },
{ "type": "Feature", "properties": { "field_1": 100, "Unnamed: 0": 5113, "title": "Madame Magdalena Boulangerie", "icon_prize": null, "average_price": "Italian, French, Cafe, Spanish, Eastern European, Ukrainian", "users_rate": 2.0, "number_reviews": null, "street": "calle Entenca, 15", "address_formatted": "Entença, Carrer del Rosselló, 08936 Barcelona, Spain", "lat": 41.3839818, "lon": 2.1449598 }, "geometry": { "type": "Point", "coordinates": [ 2.1449598, 41.3839818 ] } },
{ "type": "Feature", "properties": { "field_1": 101, "Unnamed: 0": 5114, "title": "Original's", "icon_prize": null, "average_price": null, "users_rate": 2.5, "number_reviews": null, "street": "Balmes", "address_formatted": "Rec dels Escalars de les Balmes, Tavertet, Catalonia, Spain", "lat": 41.9930138, "lon": 2.3968264 }, "geometry": { "type": "Point", "coordinates": [ 2.3968264, 41.9930138 ] } },
{ "type": "Feature", "properties": { "field_1": 102, "Unnamed: 0": 5115, "title": "La Bodegeta", "icon_prize": null, "average_price": "Bar, Spanish", "users_rate": 2.5, "number_reviews": null, "street": "Comte de Santa Clara, 25", "address_formatted": "Catalonia, Spain", "lat": 41.66667, "lon": 2.0 }, "geometry": { "type": "Point", "coordinates": [ 2.0, 41.66667 ] } },
{ "type": "Feature", "properties": { "field_1": 103, "Unnamed: 0": 5116, "title": "Restaurante Parc Guell", "icon_prize": null, "average_price": "Spanish", "users_rate": 3.0, "number_reviews": null, "street": "C\/ Larrad 59", "address_formatted": "Catalonia, Spain", "lat": 41.66667, "lon": 2.0 }, "geometry": { "type": "Point", "coordinates": [ 2.0, 41.66667 ] } },
{ "type": "Feature", "properties": { "field_1": 104, "Unnamed: 0": 5117, "title": "Panchito Restaurant", "icon_prize": null, "average_price": "Mexican", "users_rate": 3.0, "number_reviews": null, "street": "Carrer Amigo, 57", "address_formatted": "Amigó, Carrer de Tamarit, 08011 Barcelona, Spain", "lat": 41.3794054, "lon": 2.1617499 }, "geometry": { "type": "Point", "coordinates": [ 2.1617499, 41.3794054 ] } },
{ "type": "Feature", "properties": { "field_1": 105, "Unnamed: 0": 5118, "title": "Restaurante Kingyo", "icon_prize": null, "average_price": "€12 - €30", "users_rate": 3.0, "number_reviews": null, "street": "Carrer de Cartella, 194", "address_formatted": "Carrer de Cartellà, 08031 Barcelona, Spain", "lat": 41.4278096, "lon": 2.1722081 }, "geometry": { "type": "Point", "coordinates": [ 2.1722081, 41.4278096 ] } },
{ "type": "Feature", "properties": { "field_1": 106, "Unnamed: 0": 5119, "title": "Restaurante Rosi Hu", "icon_prize": null, "average_price": "Chinese", "users_rate": 2.0, "number_reviews": null, "street": "Viladomat, 73", "address_formatted": "Viladomat, Plaça de l'Ajuntament, 08698 la Nou de Berguedà, Spain", "lat": 42.1671835, "lon": 1.884449 }, "geometry": { "type": "Point", "coordinates": [ 1.884449, 42.1671835 ] } },
{ "type": "Feature", "properties": { "field_1": 107, "Unnamed: 0": 5120, "title": "Cerveseria Pepe 2", "icon_prize": null, "average_price": "Mediterranean, Spanish", "users_rate": 3.0, "number_reviews": null, "street": "Avinguda Del Paral. Lel 74", "address_formatted": "Catalonia, Spain", "lat": 41.66667, "lon": 2.0 }, "geometry": { "type": "Point", "coordinates": [ 2.0, 41.66667 ] } },
{ "type": "Feature", "properties": { "field_1": 108, "Unnamed: 0": 5121, "title": "Braseria La Placa", "icon_prize": null, "average_price": "Spanish, Pub, Gastropub", "users_rate": 3.0, "number_reviews": null, "street": "Passeig zona Franca 174", "address_formatted": "Ronda Litoral \/ (industrial) Zona Franca;(harbour) Cargo Nord; Passeig de Zona Franca (Fira), 08038 Barcelona, Spain", "lat": 41.3465456, "lon": 2.1404504 }, "geometry": { "type": "Point", "coordinates": [ 2.1404504, 41.3465456 ] } },
{ "type": "Feature", "properties": { "field_1": 109, "Unnamed: 0": 5122, "title": "Glass 23", "icon_prize": null, "average_price": "Dinner", "users_rate": 4.0, "number_reviews": null, "street": "Avenida Sarria 23", "address_formatted": "Av Sarrià, Carrer de la Caravel·la La Niña, 08021 Barcelona, Spain", "lat": 41.3914151, "lon": 2.1327646 }, "geometry": { "type": "Point", "coordinates": [ 2.1327646, 41.3914151 ] } },
{ "type": "Feature", "properties": { "field_1": 110, "Unnamed: 0": 5123, "title": "La Tartana", "icon_prize": null, "average_price": "Mediterranean, Spanish", "users_rate": 3.0, "number_reviews": null, "street": "Carrer de Juan Guell 23", "address_formatted": "Catalonia, Spain", "lat": 41.66667, "lon": 2.0 }, "geometry": { "type": "Point", "coordinates": [ 2.0, 41.66667 ] } },
{ "type": "Feature", "properties": { "field_1": 111, "Unnamed: 0": 5124, "title": "El Chiringuito Group Natura Beach", "icon_prize": null, "average_price": "€10 - €30", "users_rate": 2.0, "number_reviews": null, "street": "Ronda litoral", "address_formatted": "Ronda Litoral, 08080 Barcelona, Spain", "lat": 41.33944, "lon": 2.1173709 }, "geometry": { "type": "Point", "coordinates": [ 2.1173709, 41.33944 ] } },
{ "type": "Feature", "properties": { "field_1": 112, "Unnamed: 0": 5125, "title": "La Tasca D'or", "icon_prize": null, "average_price": null, "users_rate": 2.5, "number_reviews": null, "street": "Calle Bailen, 146", "address_formatted": "Carrer Bailen, 08402 la Roca del Vallès, Spain", "lat": 41.6030546, "lon": 2.3012683 }, "geometry": { "type": "Point", "coordinates": [ 2.3012683, 41.6030546 ] } },
{ "type": "Feature", "properties": { "field_1": 113, "Unnamed: 0": 5126, "title": "BocaLoca", "icon_prize": null, "average_price": "Spanish", "users_rate": 2.0, "number_reviews": null, "street": "Calle Puigcerda 225", "address_formatted": "Carrer Puigcerdá, 08110 Montcada i Reixac, Spain", "lat": 41.495243, "lon": 2.1838203 }, "geometry": { "type": "Point", "coordinates": [ 2.1838203, 41.495243 ] } },
{ "type": "Feature", "properties": { "field_1": 114, "Unnamed: 0": 5127, "title": "Colmado Murria", "icon_prize": null, "average_price": "Deli", "users_rate": 5.0, "number_reviews": null, "street": "Carrer de Roger de Lluria, 85", "address_formatted": "Colmado Múrria, Carrer de Roger de Llúria, 85, 080009 Barcelona, Spain", "lat": 41.3947754, "lon": 2.1664739 }, "geometry": { "type": "Point", "coordinates": [ 2.1664739, 41.3947754 ] } },
{ "type": "Feature", "properties": { "field_1": 115, "Unnamed: 0": 5128, "title": "Caruso", "icon_prize": null, "average_price": "Italian", "users_rate": 3.0, "number_reviews": null, "street": "La rambla 96", "address_formatted": "La Rambla, 96, 80002 Barcelona, Spain", "lat": 41.3823568, "lon": 2.1724339 }, "geometry": { "type": "Point", "coordinates": [ 2.1724339, 41.3823568 ] } },
{ "type": "Feature", "properties": { "field_1": 116, "Unnamed: 0": 5129, "title": "Bocpertot", "icon_prize": null, "average_price": "Seating, Wheelchair Accessible", "users_rate": 3.0, "number_reviews": null, "street": "Paseo La Rambla, 56", "address_formatted": "Tavertet, Catalonia, Spain", "lat": 42.0135355, "lon": 2.425772 }, "geometry": { "type": "Point", "coordinates": [ 2.425772, 42.0135355 ] } },
{ "type": "Feature", "properties": { "field_1": 117, "Unnamed: 0": 5130, "title": "Pica Pica Picadito", "icon_prize": null, "average_price": "Spanish", "users_rate": 2.5, "number_reviews": null, "street": "Paseo Sant Antoni 25", "address_formatted": "Sant Antoni, el Pujol Nou, Artés, Catalonia, Spain", "lat": 41.7984872, "lon": 1.9421318 }, "geometry": { "type": "Point", "coordinates": [ 1.9421318, 41.7984872 ] } },
{ "type": "Feature", "properties": { "field_1": 118, "Unnamed: 0": 5131, "title": "Noubar", "icon_prize": null, "average_price": "€7 - €10", "users_rate": 2.0, "number_reviews": null, "street": "Santapau, 23", "address_formatted": "Escola Dolors Monserdà-Santapau, Carrer de Vidal i Quadras, 08017 Barcelona, Spain", "lat": 41.4051617, "lon": 2.1150647 }, "geometry": { "type": "Point", "coordinates": [ 2.1150647, 41.4051617 ] } },
{ "type": "Feature", "properties": { "field_1": 119, "Unnamed: 0": 5132, "title": "Portal del Mar", "icon_prize": null, "average_price": "Mediterranean", "users_rate": 3.0, "number_reviews": null, "street": "Dr. Trueta 118", "address_formatted": "Carrer del Doctor Trueta, 08780 el Papiol, Spain", "lat": 41.4360978, "lon": 2.007259 }, "geometry": { "type": "Point", "coordinates": [ 2.007259, 41.4360978 ] } },
{ "type": "Feature", "properties": { "field_1": 120, "Unnamed: 0": 5133, "title": "Pans & Company", "icon_prize": null, "average_price": "€3 - €7", "users_rate": 2.0, "number_reviews": null, "street": "Passeig d'Andreu Nin, 51", "address_formatted": "El Corte Inglés (Can Dragó), Passeig d'Andreu Nin, 51, 08016 Barcelona, Spain", "lat": 41.4362336, "lon": 2.1814176 }, "geometry": { "type": "Point", "coordinates": [ 2.1814176, 41.4362336 ] } },
{ "type": "Feature", "properties": { "field_1": 121, "Unnamed: 0": 5134, "title": "Goiko - Carrer Independencia 339", "icon_prize": null, "average_price": "American", "users_rate": 3.0, "number_reviews": null, "street": "Carrer Independencia 339", "address_formatted": "Carrer Independencia, 08290 Cerdanyola del Vallès, Spain", "lat": 41.4877858, "lon": 2.1335713 }, "geometry": { "type": "Point", "coordinates": [ 2.1335713, 41.4877858 ] } },
{ "type": "Feature", "properties": { "field_1": 122, "Unnamed: 0": 5135, "title": "Liceu", "icon_prize": null, "average_price": null, "users_rate": 2.0, "number_reviews": null, "street": "La Rambla 84", "address_formatted": "Tavertet, Catalonia, Spain", "lat": 42.0135355, "lon": 2.425772 }, "geometry": { "type": "Point", "coordinates": [ 2.425772, 42.0135355 ] } },
{ "type": "Feature", "properties": { "field_1": 123, "Unnamed: 0": 5136, "title": "Restaurante Qu-Qu", "icon_prize": null, "average_price": "€10 - €15", "users_rate": 3.0, "number_reviews": null, "street": "Passeig de Gracia, 24", "address_formatted": "Qu Qu, Passeig de Gràcia, 24, 08007 Barcelona, Spain", "lat": 41.3901575, "lon": 2.1678809 }, "geometry": { "type": "Point", "coordinates": [ 2.1678809, 41.3901575 ] } },
{ "type": "Feature", "properties": { "field_1": 124, "Unnamed: 0": 5137, "title": "Gaft", "icon_prize": null, "average_price": "Seafood, Mediterranean, European, Spanish", "users_rate": 3.0, "number_reviews": null, "street": "Avenida Drassanes 6-8", "address_formatted": "Drassanes, Carrer del Portal de Santa Madrona, 80002 Barcelona, Spain", "lat": 41.3765687, "lon": 2.1755547 }, "geometry": { "type": "Point", "coordinates": [ 2.1755547, 41.3765687 ] } },
{ "type": "Feature", "properties": { "field_1": 125, "Unnamed: 0": 5138, "title": "Frankfurt Diagonal", "icon_prize": null, "average_price": "American, German, Bar, Spanish", "users_rate": 3.0, "number_reviews": null, "street": "Avinguda Diagonal 186", "address_formatted": "Avinguda Diagonal, 08034 Barcelona, Spain", "lat": 41.3849398, "lon": 2.113976 }, "geometry": { "type": "Point", "coordinates": [ 2.113976, 41.3849398 ] } },
{ "type": "Feature", "properties": { "field_1": 126, "Unnamed: 0": 5139, "title": "La Crema", "icon_prize": null, "average_price": "Spanish, Mediterranean", "users_rate": 3.0, "number_reviews": null, "street": "Dante Alighieri, 77", "address_formatted": "Carrer de Dante Alighieri, 08032 Barcelona, Spain", "lat": 41.4278629, "lon": 2.1586862 }, "geometry": { "type": "Point", "coordinates": [ 2.1586862, 41.4278629 ] } },
{ "type": "Feature", "properties": { "field_1": 127, "Unnamed: 0": 5140, "title": "Tapas 24 Camp Nou", "icon_prize": null, "average_price": "€15 - €30", "users_rate": 3.0, "number_reviews": null, "street": "Calle Aristides Maillol, 12", "address_formatted": "Carrer Aristides Maillol, Mataró, Spain", "lat": 41.5546443, "lon": 2.4422916 }, "geometry": { "type": "Point", "coordinates": [ 2.4422916, 41.5546443 ] } },
{ "type": "Feature", "properties": { "field_1": 128, "Unnamed: 0": 5141, "title": "Mepiace Vall Parc Restaurant", "icon_prize": null, "average_price": "Mediterranean, Spanish", "users_rate": 3.0, "number_reviews": null, "street": "Carretera De L'Arrabassada, 107-127", "address_formatted": "08775 Cabrera d'Anoia, Spain", "lat": 41.4806832, "lon": 1.7300148 }, "geometry": { "type": "Point", "coordinates": [ 1.7300148, 41.4806832 ] } },
{ "type": "Feature", "properties": { "field_1": 129, "Unnamed: 0": 5142, "title": "Ginos", "icon_prize": null, "average_price": "Italian, Pizza", "users_rate": 3.0, "number_reviews": null, "street": "Avinguda Diagonal, 3", "address_formatted": "Foster’s Hollywood, Avinguda Diagonal, 3, 08021 Barcelona, Spain", "lat": 41.3921, "lon": 2.14477 }, "geometry": { "type": "Point", "coordinates": [ 2.14477, 41.3921 ] } },
{ "type": "Feature", "properties": { "field_1": 130, "Unnamed: 0": 5143, "title": "El Cafe D'en Victor", "icon_prize": null, "average_price": null, "users_rate": 3.0, "number_reviews": null, "street": "12 Tapineria", "address_formatted": "El Cafè D'en Victor, Carrer de la Tapineria, 12, 08002 Barcelona, Spain", "lat": 41.3847931, "lon": 2.1767008 }, "geometry": { "type": "Point", "coordinates": [ 2.1767008, 41.3847931 ] } },
{ "type": "Feature", "properties": { "field_1": 131, "Unnamed: 0": 5144, "title": "Con K", "icon_prize": null, "average_price": null, "users_rate": 2.5, "number_reviews": null, "street": "Banys Vells 19", "address_formatted": "Carrer dels Banys Vells, CP 08003 Barcelona, Spain", "lat": 41.3842781, "lon": 2.181061 }, "geometry": { "type": "Point", "coordinates": [ 2.181061, 41.3842781 ] } },
{ "type": "Feature", "properties": { "field_1": 132, "Unnamed: 0": 5145, "title": "MasQMenos Diagonal Mar", "icon_prize": null, "average_price": "€10 - €30", "users_rate": 2.5, "number_reviews": null, "street": "Av. Diagonal, 3", "address_formatted": "Foster’s Hollywood, Avinguda Diagonal, 3, 08021 Barcelona, Spain", "lat": 41.3921, "lon": 2.14477 }, "geometry": { "type": "Point", "coordinates": [ 2.14477, 41.3921 ] } },
{ "type": "Feature", "properties": { "field_1": 133, "Unnamed: 0": 5146, "title": "Bar - Restaurante Garganta la Olla", "icon_prize": null, "average_price": null, "users_rate": 2.5, "number_reviews": null, "street": "Calle Hondures 78", "address_formatted": "Catalonia, Spain", "lat": 41.66667, "lon": 2.0 }, "geometry": { "type": "Point", "coordinates": [ 2.0, 41.66667 ] } },
{ "type": "Feature", "properties": { "field_1": 134, "Unnamed: 0": 5147, "title": "Pati Blau", "icon_prize": null, "average_price": "€9 - €25", "users_rate": 3.5, "number_reviews": null, "street": "Carre de Jordi Girona 14", "address_formatted": "Catalonia, Spain", "lat": 41.66667, "lon": 2.0 }, "geometry": { "type": "Point", "coordinates": [ 2.0, 41.66667 ] } },
{ "type": "Feature", "properties": { "field_1": 135, "Unnamed: 0": 5148, "title": "Sushiya 1 Uno", "icon_prize": null, "average_price": "Japanese, Sushi, Asian", "users_rate": 3.0, "number_reviews": null, "street": "Calle Quintana 4", "address_formatted": "Sushi Ya, Carrer d'en Quintana, 4, 80002 Barcelona, Spain", "lat": 41.3810629, "lon": 2.174489 }, "geometry": { "type": "Point", "coordinates": [ 2.174489, 41.3810629 ] } },
{ "type": "Feature", "properties": { "field_1": 136, "Unnamed: 0": 5149, "title": "Burger King", "icon_prize": null, "average_price": "Fast Food", "users_rate": 3.0, "number_reviews": null, "street": "Carrer Arago 259", "address_formatted": "Carrer Aragó, 08870 Sitges, Spain", "lat": 41.2387213, "lon": 1.8155559 }, "geometry": { "type": "Point", "coordinates": [ 1.8155559, 41.2387213 ] } },
{ "type": "Feature", "properties": { "field_1": 137, "Unnamed: 0": 5150, "title": "Vinals 1906", "icon_prize": null, "average_price": "€6 - €20", "users_rate": 2.0, "number_reviews": null, "street": "Avinguda Diagonal, 557", "address_formatted": "Uno De 50, Avinguda Diagonal, 557, 08029 Barcelona, Spain", "lat": 41.3989776, "lon": 2.1695371 }, "geometry": { "type": "Point", "coordinates": [ 2.1695371, 41.3989776 ] } },
{ "type": "Feature", "properties": { "field_1": 138, "Unnamed: 0": 5151, "title": "Evinia", "icon_prize": null, "average_price": "Spanish", "users_rate": 2.5, "number_reviews": null, "street": "Via Laietana 23", "address_formatted": "Cubedo, Via Laietana, 23, CP 08003 Barcelona, Spain", "lat": 41.3837108, "lon": 2.1788357 }, "geometry": { "type": "Point", "coordinates": [ 2.1788357, 41.3837108 ] } },
{ "type": "Feature", "properties": { "field_1": 139, "Unnamed: 0": 5152, "title": "CERVECERIA-RESTAURANTE SANTANA", "icon_prize": null, "average_price": "Mediterranean, Spanish, Mexican", "users_rate": 4.5, "number_reviews": null, "street": "Peniscola, 27", "address_formatted": "Carrer de Peníscola, 27, 08033 Barcelona, Spain", "lat": 41.4533968, "lon": 2.1902273 }, "geometry": { "type": "Point", "coordinates": [ 2.1902273, 41.4533968 ] } },
{ "type": "Feature", "properties": { "field_1": 140, "Unnamed: 0": 5154, "title": "El nou tipi tapa", "icon_prize": null, "average_price": "Spanish, Cafe", "users_rate": 4.0, "number_reviews": null, "street": "Paseo de maragall 408", "address_formatted": "Maragall, Carrer de Prat d'en Roquer, 08031 Barcelona, Spain", "lat": 41.4252173, "lon": 2.1763967 }, "geometry": { "type": "Point", "coordinates": [ 2.1763967, 41.4252173 ] } },
{ "type": "Feature", "properties": { "field_1": 141, "Unnamed: 0": 5155, "title": "Bar Lorenzo", "icon_prize": null, "average_price": "Mediterranean, Spanish, Catalan", "users_rate": 2.0, "number_reviews": null, "street": "Passeig de la Bonanova 105, 08017 Barcelona", "address_formatted": "Morro Fi, Passeig de la Bonanova, 105, 08034 Barcelona, Spain", "lat": 41.4012224, "lon": 2.1240569 }, "geometry": { "type": "Point", "coordinates": [ 2.1240569, 41.4012224 ] } },
{ "type": "Feature", "properties": { "field_1": 142, "Unnamed: 0": 5156, "title": "TGB The Good Burger", "icon_prize": null, "average_price": "Fast Food, American", "users_rate": 3.0, "number_reviews": null, "street": "Carrer Villarroel 223", "address_formatted": "La Villarroel, Carrer de Villarroel, 87, 08011 Barcelona, Spain", "lat": 41.3845152, "lon": 2.1573507 }, "geometry": { "type": "Point", "coordinates": [ 2.1573507, 41.3845152 ] } },
{ "type": "Feature", "properties": { "field_1": 143, "Unnamed: 0": 5157, "title": "Restaurante Afiparc", "icon_prize": null, "average_price": null, "users_rate": 3.0, "number_reviews": null, "street": "Carrer d'Olot", "address_formatted": "Carrer d'Olot, 08023 Barcelona, Spain", "lat": 41.4131962, "lon": 2.1527966 }, "geometry": { "type": "Point", "coordinates": [ 2.1527966, 41.4131962 ] } },
{ "type": "Feature", "properties": { "field_1": 144, "Unnamed: 0": 5158, "title": "Tapa Tapa", "icon_prize": null, "average_price": "Spanish", "users_rate": 2.0, "number_reviews": null, "street": "Avinguda Diagonal, N. 208", "address_formatted": "Avinguda Diagonal, 08034 Barcelona, Spain", "lat": 41.3849398, "lon": 2.113976 }, "geometry": { "type": "Point", "coordinates": [ 2.113976, 41.3849398 ] } },
{ "type": "Feature", "properties": { "field_1": 145, "Unnamed: 0": 5159, "title": "La Bottega di Lapio", "icon_prize": null, "average_price": "Italian, Pizza, Fast Food, Mediterranean, Neapolitan, Campania, Southern-Italian", "users_rate": 2.0, "number_reviews": null, "street": "Carrer de Torrijos, 53", "address_formatted": "La Bottega di Lapio, Carrer de Torrijos, 53, 08012 Barcelona, Spain", "lat": 41.4045731, "lon": 2.1575966 }, "geometry": { "type": "Point", "coordinates": [ 2.1575966, 41.4045731 ] } },
{ "type": "Feature", "properties": { "field_1": 146, "Unnamed: 0": 5160, "title": "Kyoka", "icon_prize": null, "average_price": "Japanese, Sushi, Asian, Fusion", "users_rate": 3.0, "number_reviews": null, "street": "Avinguda Diagonal, 168", "address_formatted": "Avinguda Diagonal, 168, 08018 Barcelona, Spain", "lat": 41.4057343, "lon": 2.1957052 }, "geometry": { "type": "Point", "coordinates": [ 2.1957052, 41.4057343 ] } },
{ "type": "Feature", "properties": { "field_1": 147, "Unnamed: 0": 5161, "title": "Drugstore Restaurant", "icon_prize": null, "average_price": null, "users_rate": 2.5, "number_reviews": null, "street": "C\/ Tuset, 19-21", "address_formatted": "Carrer de Tuset, 08006 Barcelona, Spain", "lat": 41.3956711, "lon": 2.1523527 }, "geometry": { "type": "Point", "coordinates": [ 2.1523527, 41.3956711 ] } },
{ "type": "Feature", "properties": { "field_1": 148, "Unnamed: 0": 5162, "title": "Peccato Di Gola", "icon_prize": null, "average_price": "Pizza, Italian", "users_rate": 3.0, "number_reviews": null, "street": "Carrer Joaquin Costa, 18", "address_formatted": "Catalonia, Spain", "lat": 41.66667, "lon": 2.0 }, "geometry": { "type": "Point", "coordinates": [ 2.0, 41.66667 ] } },
{ "type": "Feature", "properties": { "field_1": 149, "Unnamed: 0": 5163, "title": "El Celler del Nou Priorat", "icon_prize": null, "average_price": "€10 - €25", "users_rate": 3.5, "number_reviews": null, "street": "Vallespir, 19", "address_formatted": "Edifici Octàvia, Carrer de Vallespir, 19, 08190 Sant Cugat del Vallès, Spain", "lat": 41.4797311, "lon": 2.0683632 }, "geometry": { "type": "Point", "coordinates": [ 2.0683632, 41.4797311 ] } },
{ "type": "Feature", "properties": { "field_1": 150, "Unnamed: 0": 5164, "title": "Bar La Tasqueta de Can Felipa", "icon_prize": null, "average_price": "Spanish", "users_rate": 3.0, "number_reviews": null, "street": "Pallars, 243", "address_formatted": "08586 Perafita, Spain", "lat": 42.0553441, "lon": 2.108565 }, "geometry": { "type": "Point", "coordinates": [ 2.108565, 42.0553441 ] } },
{ "type": "Feature", "properties": { "field_1": 151, "Unnamed: 0": 5165, "title": "Canas y Tapas", "icon_prize": null, "average_price": "Mediterranean, European, Spanish", "users_rate": 3.0, "number_reviews": null, "street": "208, Avinguda Diagonal", "address_formatted": "Glòries Multicines, Avinguda Diagonal, 208, 08018 Barcelona, Spain", "lat": 41.4053714, "lon": 2.1928801 }, "geometry": { "type": "Point", "coordinates": [ 2.1928801, 41.4053714 ] } },
{ "type": "Feature", "properties": { "field_1": 152, "Unnamed: 0": 5166, "title": "Ginos", "icon_prize": null, "average_price": "Italian", "users_rate": 3.0, "number_reviews": null, "street": "Carrer De Potosi, 2", "address_formatted": "Carrer de Potosí, 2, 08030 Barcelona, Spain", "lat": 41.4427541, "lon": 2.2002297 }, "geometry": { "type": "Point", "coordinates": [ 2.2002297, 41.4427541 ] } },
{ "type": "Feature", "properties": { "field_1": 153, "Unnamed: 0": 5167, "title": "Arabian Nights Restaurant", "icon_prize": null, "average_price": "€2 - €30", "users_rate": 4.5, "number_reviews": null, "street": "Moll de Gregal Port Olimpic, 26", "address_formatted": "Olympic Port, Catalonia, Spain", "lat": 41.387, "lon": 2.20029 }, "geometry": { "type": "Point", "coordinates": [ 2.20029, 41.387 ] } },
{ "type": "Feature", "properties": { "field_1": 154, "Unnamed: 0": 5168, "title": "Restaurant La Vid", "icon_prize": null, "average_price": "Spanish, Mediterranean", "users_rate": 3.0, "number_reviews": null, "street": "Carrer Foc 44", "address_formatted": "Foc, Passeig de la Zona Franca, 08038 Barcelona, Spain", "lat": 41.3558512, "lon": 2.1421622 }, "geometry": { "type": "Point", "coordinates": [ 2.1421622, 41.3558512 ] } },
{ "type": "Feature", "properties": { "field_1": 155, "Unnamed: 0": 5169, "title": "La Fonda Del Camino", "icon_prize": null, "average_price": "Colombian, South American", "users_rate": 3.0, "number_reviews": null, "street": "C\/ 26 de Gener, 26", "address_formatted": "08279 Avinyó, Spain", "lat": 41.8699234, "lon": 1.9934787 }, "geometry": { "type": "Point", "coordinates": [ 1.9934787, 41.8699234 ] } },
{ "type": "Feature", "properties": { "field_1": 156, "Unnamed: 0": 5170, "title": "Frank Burg & Bikes", "icon_prize": null, "average_price": null, "users_rate": 4.0, "number_reviews": null, "street": "Sardenya 386", "address_formatted": "Sardenya, Carrer de Sardenya, 08088 Barcelona, Spain", "lat": 41.4036868, "lon": 2.1730622 }, "geometry": { "type": "Point", "coordinates": [ 2.1730622, 41.4036868 ] } },
{ "type": "Feature", "properties": { "field_1": 157, "Unnamed: 0": 5171, "title": "Peix Fresc", "icon_prize": null, "average_price": "Mediterranean", "users_rate": 2.0, "number_reviews": null, "street": "Parlament, 46", "address_formatted": "Carrer del Parlament, 46, 08001 Barcelona, Spain", "lat": 41.3770416, "lon": 2.163835 }, "geometry": { "type": "Point", "coordinates": [ 2.163835, 41.3770416 ] } },
{ "type": "Feature", "properties": { "field_1": 158, "Unnamed: 0": 5172, "title": "La Cordial", "icon_prize": null, "average_price": "Seating, Wheelchair Accessible, Serves Alcohol, Table Service", "users_rate": 3.0, "number_reviews": null, "street": "Enric Granados 1", "address_formatted": "Av. Rius i Taulet, Enric Granados, Avinguda de Rius i Taulet, 08172 Sant Cugat del Vallès, Spain", "lat": 41.4720436, "lon": 2.0814069 }, "geometry": { "type": "Point", "coordinates": [ 2.0814069, 41.4720436 ] } },
{ "type": "Feature", "properties": { "field_1": 159, "Unnamed: 0": 5173, "title": "KFC Meridiana", "icon_prize": null, "average_price": "Fast Food", "users_rate": 3.0, "number_reviews": null, "street": "Avenida Meridiana 348", "address_formatted": "Avinguda Meridiana, 08026 Barcelona, Spain", "lat": 41.4121681, "lon": 2.1868058 }, "geometry": { "type": "Point", "coordinates": [ 2.1868058, 41.4121681 ] } },
{ "type": "Feature", "properties": { "field_1": 160, "Unnamed: 0": 5174, "title": "Tapas i Apat", "icon_prize": null, "average_price": null, "users_rate": 2.5, "number_reviews": null, "street": "Las Ramblas, 15", "address_formatted": "Hostafrancs, Barcelona, Catalonia, Spain", "lat": 41.3750877, "lon": 2.1429334 }, "geometry": { "type": "Point", "coordinates": [ 2.1429334, 41.3750877 ] } },
{ "type": "Feature", "properties": { "field_1": 161, "Unnamed: 0": 5175, "title": "Traga tio", "icon_prize": null, "average_price": "International", "users_rate": 4.5, "number_reviews": null, "street": "Teodor llorente 5", "address_formatted": "Passatge de Teodor Llorente, 08205 Sabadell, Spain", "lat": 41.5473189, "lon": 2.0946462 }, "geometry": { "type": "Point", "coordinates": [ 2.0946462, 41.5473189 ] } },
{ "type": "Feature", "properties": { "field_1": 162, "Unnamed: 0": 5176, "title": "Central Cafe (Calvet)", "icon_prize": null, "average_price": "Cafe, Mediterranean, European, Spanish, Healthy", "users_rate": 4.0, "number_reviews": null, "street": "Calle Calvet, 1", "address_formatted": "Calvet, Carrer del Tenor Viñas, 12, 08021 Barcelona, Spain", "lat": 41.3950395, "lon": 2.142893 }, "geometry": { "type": "Point", "coordinates": [ 2.142893, 41.3950395 ] } },
{ "type": "Feature", "properties": { "field_1": 163, "Unnamed: 0": 5177, "title": "Restaurante Marinero", "icon_prize": null, "average_price": "Lunch, Dinner", "users_rate": 2.5, "number_reviews": null, "street": "C\/Pau Claris, 189", "address_formatted": "Pau Claris, Gran Via de les Corts Catalanes, 08007 Barcelona, Spain", "lat": 41.3897269, "lon": 2.1688642 }, "geometry": { "type": "Point", "coordinates": [ 2.1688642, 41.3897269 ] } },
{ "type": "Feature", "properties": { "field_1": 164, "Unnamed: 0": 5178, "title": "Casa de los Navarros", "icon_prize": null, "average_price": "Mediterranean, Spanish", "users_rate": 3.0, "number_reviews": null, "street": "Maragall, 375", "address_formatted": "Maragall, Carrer de Prat d'en Roquer, 08031 Barcelona, Spain", "lat": 41.4252173, "lon": 2.1763967 }, "geometry": { "type": "Point", "coordinates": [ 2.1763967, 41.4252173 ] } },
{ "type": "Feature", "properties": { "field_1": 165, "Unnamed: 0": 5179, "title": "Panchito Gracia", "icon_prize": null, "average_price": "€3 - €10", "users_rate": 3.0, "number_reviews": null, "street": "Calle Bruniquer, 33-35", "address_formatted": "Bruniquer, Carrer de Bruniquer, 08037 BCN Barcelona, Spain", "lat": 41.4056088, "lon": 2.1621684 }, "geometry": { "type": "Point", "coordinates": [ 2.1621684, 41.4056088 ] } },
{ "type": "Feature", "properties": { "field_1": 166, "Unnamed: 0": 5180, "title": "El Meu Poble", "icon_prize": null, "average_price": "Reservations", "users_rate": 2.5, "number_reviews": null, "street": "Avinguda Del Princep D'asturies, 29", "address_formatted": "Avinguda de la Riera de Cassoles, 8 Barcelona, Spain", "lat": 41.4058277, "lon": 2.1500512 }, "geometry": { "type": "Point", "coordinates": [ 2.1500512, 41.4058277 ] } },
{ "type": "Feature", "properties": { "field_1": 167, "Unnamed: 0": 5181, "title": "Cerveceria Pepe", "icon_prize": null, "average_price": "Spanish", "users_rate": 2.5, "number_reviews": null, "street": "Av del Paralelo 75", "address_formatted": "Catalonia, Spain", "lat": 41.66667, "lon": 2.0 }, "geometry": { "type": "Point", "coordinates": [ 2.0, 41.66667 ] } },
{ "type": "Feature", "properties": { "field_1": 168, "Unnamed: 0": 5182, "title": "El Rincon Peruano", "icon_prize": null, "average_price": null, "users_rate": 2.5, "number_reviews": null, "street": "Carrer d'Entenca, 146", "address_formatted": "Carrer d'Entença, 146, 8015 Barcelona, Spain", "lat": 41.3816959, "lon": 2.148235 }, "geometry": { "type": "Point", "coordinates": [ 2.148235, 41.3816959 ] } },
{ "type": "Feature", "properties": { "field_1": 169, "Unnamed: 0": 5183, "title": "Medulio", "icon_prize": null, "average_price": null, "users_rate": 2.5, "number_reviews": null, "street": "Princep D\"asturies, 6", "address_formatted": "Avinguda de la Riera de Cassoles, 08006 Barcelona, Spain", "lat": 41.4037891, "lon": 2.1500181 }, "geometry": { "type": "Point", "coordinates": [ 2.1500181, 41.4037891 ] } },
{ "type": "Feature", "properties": { "field_1": 170, "Unnamed: 0": 5184, "title": "CAFE DORE Mandri", "icon_prize": null, "average_price": "American, Spanish", "users_rate": 3.5, "number_reviews": null, "street": "Mandri, 36", "address_formatted": "Carrer de Mandri, 08022 Barcelona, Spain", "lat": 41.4020588, "lon": 2.1351318 }, "geometry": { "type": "Point", "coordinates": [ 2.1351318, 41.4020588 ] } },
{ "type": "Feature", "properties": { "field_1": 171, "Unnamed: 0": 5185, "title": "Almina Mar", "icon_prize": null, "average_price": "Mediterranean, Spanish", "users_rate": 2.5, "number_reviews": null, "street": "Carrer de Sant Antoni Maria Claret, 132", "address_formatted": "Almina Mar, Carrer de Sant Antoni Maria Claret, 132-136, 08025 Barcelona, Spain", "lat": 41.4080517, "lon": 2.1703488 }, "geometry": { "type": "Point", "coordinates": [ 2.1703488, 41.4080517 ] } },
{ "type": "Feature", "properties": { "field_1": 172, "Unnamed: 0": 5186, "title": "Braseria Patio Maragall", "icon_prize": null, "average_price": "Barbecue, Spanish", "users_rate": 2.5, "number_reviews": null, "street": "Calle Ramon Albo 5", "address_formatted": "Carrer de Ramon Albó, 08031 Barcelona, Spain", "lat": 41.4261921, "lon": 2.1772852 }, "geometry": { "type": "Point", "coordinates": [ 2.1772852, 41.4261921 ] } },
{ "type": "Feature", "properties": { "field_1": 173, "Unnamed: 0": 5187, "title": "Bar Restaurant Coto Alto", "icon_prize": null, "average_price": "Cafe", "users_rate": 2.5, "number_reviews": null, "street": "Passeig del Taulat, 232", "address_formatted": "Passeig del Taulat, 08019 Barcelona, Spain", "lat": 41.4093534, "lon": 2.2175438 }, "geometry": { "type": "Point", "coordinates": [ 2.2175438, 41.4093534 ] } },
{ "type": "Feature", "properties": { "field_1": 174, "Unnamed: 0": 5188, "title": "Hiper Bocata", "icon_prize": null, "average_price": "Fast Food, Spanish", "users_rate": 3.0, "number_reviews": null, "street": "Via Julia 48-54", "address_formatted": "Via Júlia, 08042 Barcelona, Spain", "lat": 41.4459725, "lon": 2.1797468 }, "geometry": { "type": "Point", "coordinates": [ 2.1797468, 41.4459725 ] } },
{ "type": "Feature", "properties": { "field_1": 175, "Unnamed: 0": 5189, "title": "Yun Lai", "icon_prize": null, "average_price": "Chinese", "users_rate": 2.5, "number_reviews": null, "street": "Placa Maragall, 20", "address_formatted": "Plaça Maragall, Berga, Spain", "lat": 42.1043722, "lon": 1.8452274 }, "geometry": { "type": "Point", "coordinates": [ 1.8452274, 42.1043722 ] } },
{ "type": "Feature", "properties": { "field_1": 176, "Unnamed: 0": 5190, "title": "Downtown Restaurant", "icon_prize": null, "average_price": "€10 - €30", "users_rate": 3.0, "number_reviews": null, "street": "Carrer de n'Amargos 13", "address_formatted": "Catalonia, Spain", "lat": 41.66667, "lon": 2.0 }, "geometry": { "type": "Point", "coordinates": [ 2.0, 41.66667 ] } },
{ "type": "Feature", "properties": { "field_1": 177, "Unnamed: 0": 5191, "title": "Heladeria Mozart", "icon_prize": null, "average_price": null, "users_rate": 2.0, "number_reviews": null, "street": "Carrer de Moscou, 26", "address_formatted": "Carrer de Moscou, 08071 Barcelona, Spain", "lat": 41.3870098, "lon": 2.1938596 }, "geometry": { "type": "Point", "coordinates": [ 2.1938596, 41.3870098 ] } },
{ "type": "Feature", "properties": { "field_1": 178, "Unnamed: 0": 5192, "title": "Alta Galicia", "icon_prize": null, "average_price": "€8 - €28", "users_rate": 3.0, "number_reviews": null, "street": "93\/95 Rambla Del Poblenou", "address_formatted": "Rambla del Poblenou, 93-95, 08005 Barcelona, Spain", "lat": 41.402454, "lon": 2.1991883 }, "geometry": { "type": "Point", "coordinates": [ 2.1991883, 41.402454 ] } },
{ "type": "Feature", "properties": { "field_1": 179, "Unnamed: 0": 5193, "title": "Cafeteria Cervesseria Belles Arts II", "icon_prize": null, "average_price": "Spanish", "users_rate": 2.5, "number_reviews": null, "street": "288 Travessera de les Corts", "address_formatted": "Belles Arts II, Travessera de les Corts, 288, 08029 Barcelona, Spain", "lat": 41.387298, "lon": 2.1361977 }, "geometry": { "type": "Point", "coordinates": [ 2.1361977, 41.387298 ] } },
{ "type": "Feature", "properties": { "field_1": 180, "Unnamed: 0": 5194, "title": "Restaurante Yague", "icon_prize": null, "average_price": "Spanish", "users_rate": 3.0, "number_reviews": null, "street": "Girona, 13", "address_formatted": "Girona, Catalonia Square, Barcelona, Spain", "lat": 41.3870006, "lon": 2.169377 }, "geometry": { "type": "Point", "coordinates": [ 2.169377, 41.3870006 ] } },
{ "type": "Feature", "properties": { "field_1": 181, "Unnamed: 0": 5195, "title": "Cafe Escac", "icon_prize": null, "average_price": "Bar, Mediterranean, European, Spanish", "users_rate": 3.0, "number_reviews": null, "street": "Placa Del Bonsucces, 5", "address_formatted": "Saula, Plaça del Bonsuccés, 5, 08001 Barcelona, Spain", "lat": 41.3837802, "lon": 2.1695665 }, "geometry": { "type": "Point", "coordinates": [ 2.1695665, 41.3837802 ] } },
{ "type": "Feature", "properties": { "field_1": 182, "Unnamed: 0": 5196, "title": "Bodegon del Norte -Marzan", "icon_prize": null, "average_price": "Spanish, Mediterranean", "users_rate": 3.0, "number_reviews": null, "street": "Valencia, 207", "address_formatted": "Valencia, Carrer de València, 08291 Ripollet, Spain", "lat": 41.4943576, "lon": 2.1695649 }, "geometry": { "type": "Point", "coordinates": [ 2.1695649, 41.4943576 ] } },
{ "type": "Feature", "properties": { "field_1": 183, "Unnamed: 0": 5197, "title": "BAR RESTAURANT EL TAJO", "icon_prize": null, "average_price": "Mediterranean, Spanish, Diner", "users_rate": 1.0, "number_reviews": null, "street": "Carrer Londres, 63", "address_formatted": "Carrer Londres, 08400 Granollers, Spain", "lat": 41.5965593, "lon": 2.2792652 }, "geometry": { "type": "Point", "coordinates": [ 2.2792652, 41.5965593 ] } },
{ "type": "Feature", "properties": { "field_1": 184, "Unnamed: 0": 5198, "title": "La Fusion", "icon_prize": null, "average_price": "€10 - €25", "users_rate": 2.0, "number_reviews": null, "street": "Calle Santander, 82", "address_formatted": "Cal Xic Montesell, Vallgorguina, Catalonia, Spain", "lat": 41.6558344, "lon": 2.5069667 }, "geometry": { "type": "Point", "coordinates": [ 2.5069667, 41.6558344 ] } },
{ "type": "Feature", "properties": { "field_1": 185, "Unnamed: 0": 5199, "title": "Salzburg C.C. Heron City", "icon_prize": null, "average_price": "Fast Food", "users_rate": 3.0, "number_reviews": null, "street": "Avinguda de Rio de Janeiro, 42", "address_formatted": "McDonald's, Avinguda de Rio de Janeiro, 42, 08016 Barcelona, Spain", "lat": 41.4354928, "lon": 2.1806468 }, "geometry": { "type": "Point", "coordinates": [ 2.1806468, 41.4354928 ] } },
{ "type": "Feature", "properties": { "field_1": 186, "Unnamed: 0": 5200, "title": "Al Solete", "icon_prize": null, "average_price": null, "users_rate": 2.0, "number_reviews": null, "street": "Passeig de la Bonanova, 109", "address_formatted": "Passeig de la Bonanova, 08022 Barcelona, Spain", "lat": 41.406455, "lon": 2.1331198 }, "geometry": { "type": "Point", "coordinates": [ 2.1331198, 41.406455 ] } },
{ "type": "Feature", "properties": { "field_1": 187, "Unnamed: 0": 5201, "title": "Can Canyes", "icon_prize": null, "average_price": "Breakfast, Lunch, Dinner", "users_rate": 2.5, "number_reviews": null, "street": "Carrer de Llull, 396", "address_formatted": "Carrer de Llull, 396, 08019 Barcelona, Spain", "lat": 41.411409, "lon": 2.2165986 }, "geometry": { "type": "Point", "coordinates": [ 2.2165986, 41.411409 ] } },
{ "type": "Feature", "properties": { "field_1": 188, "Unnamed: 0": 5202, "title": "Domino's Pizza", "icon_prize": null, "average_price": "Pizza, Fast Food", "users_rate": 3.0, "number_reviews": null, "street": "Avenida Madrid, 118", "address_formatted": "Avenida Madrid, Carrer de Lluçà, 08014 Barcelona, Spain", "lat": 41.380869, "lon": 2.1312591 }, "geometry": { "type": "Point", "coordinates": [ 2.1312591, 41.380869 ] } },
{ "type": "Feature", "properties": { "field_1": 189, "Unnamed: 0": 5203, "title": "Kentucky Fried Chicken", "icon_prize": null, "average_price": "Fast Food", "users_rate": 3.0, "number_reviews": null, "street": "Francesc Macia, 8", "address_formatted": "General Optica, Francesc Macià, 8;9, 08021 Barcelona, Spain", "lat": 41.3922, "lon": 2.14486 }, "geometry": { "type": "Point", "coordinates": [ 2.14486, 41.3922 ] } },
{ "type": "Feature", "properties": { "field_1": 190, "Unnamed: 0": 5204, "title": "Restaurant Cibreiro", "icon_prize": null, "average_price": "Mediterranean", "users_rate": 3.0, "number_reviews": null, "street": "Carrer Petrarca, 14-16", "address_formatted": "Carrer de Petrarca, 08043 Barcelona, Spain", "lat": 41.4296207, "lon": 2.1661527 }, "geometry": { "type": "Point", "coordinates": [ 2.1661527, 41.4296207 ] } },
{ "type": "Feature", "properties": { "field_1": 191, "Unnamed: 0": 5205, "title": "Yoshino", "icon_prize": null, "average_price": "Japanese, Sushi, Asian, Chinese", "users_rate": 2.5, "number_reviews": null, "street": "Carrer Mallorca 105", "address_formatted": "Carrer Mallorca, 08110 Montcada i Reixac, Spain", "lat": 41.4936096, "lon": 2.1863173 }, "geometry": { "type": "Point", "coordinates": [ 2.1863173, 41.4936096 ] } },
{ "type": "Feature", "properties": { "field_1": 192, "Unnamed: 0": 5206, "title": "Forn de Pa Sta Rita", "icon_prize": null, "average_price": null, "users_rate": 1.0, "number_reviews": null, "street": "Carrer Gran de Gracia, 214", "address_formatted": "Carrer Gran de Gràcia, 214, 08012 Barcelona, Spain", "lat": 41.4040854, "lon": 2.1518776 }, "geometry": { "type": "Point", "coordinates": [ 2.1518776, 41.4040854 ] } },
{ "type": "Feature", "properties": { "field_1": 193, "Unnamed: 0": 5207, "title": "El Raconet De La Silvia", "icon_prize": null, "average_price": "€9 - €25", "users_rate": 1.0, "number_reviews": null, "street": "Travessera de Les Corts 132", "address_formatted": "Travessera de les Corts, 08021 Barcelona, Spain", "lat": 41.3891656, "lon": 2.1391362 }, "geometry": { "type": "Point", "coordinates": [ 2.1391362, 41.3891656 ] } },
{ "type": "Feature", "properties": { "field_1": 194, "Unnamed: 0": 5208, "title": "Pedregal Bar-Restaurant", "icon_prize": null, "average_price": null, "users_rate": 2.5, "number_reviews": null, "street": "Carrer Diputacio, 270", "address_formatted": "Carrer Diputacio, 08780 el Papiol, Spain", "lat": 41.4399999, "lon": 2.0118282 }, "geometry": { "type": "Point", "coordinates": [ 2.0118282, 41.4399999 ] } },
{ "type": "Feature", "properties": { "field_1": 195, "Unnamed: 0": 5209, "title": "El Raconet del Moli", "icon_prize": null, "average_price": "Breakfast, Lunch, Dinner", "users_rate": 1.0, "number_reviews": null, "street": "Carrer Pere Calders, 14", "address_formatted": "Carrer Pere Calders, 08512 les Masies de Voltregà, Spain", "lat": 42.0082403, "lon": 2.242291 }, "geometry": { "type": "Point", "coordinates": [ 2.242291, 42.0082403 ] } },
{ "type": "Feature", "properties": { "field_1": 196, "Unnamed: 0": 5210, "title": "Station Barcelona", "icon_prize": null, "average_price": "Mediterranean", "users_rate": 2.5, "number_reviews": null, "street": "Marques d l'Argentera 6", "address_formatted": "Avinguda del Marquès de l'Argentera, 14 - Avinguda del Marques Argentera 19, CP 08003 Barcelona, Spain", "lat": 41.3850889, "lon": 2.1852146 }, "geometry": { "type": "Point", "coordinates": [ 2.1852146, 41.3850889 ] } },
{ "type": "Feature", "properties": { "field_1": 197, "Unnamed: 0": 5211, "title": "Dar El Kamar", "icon_prize": null, "average_price": "Dinner", "users_rate": 3.0, "number_reviews": null, "street": "Gran Via De Les Corts Catalanes, 633", "address_formatted": "Dar el Kamar, Gran Via de les Corts Catalanes, 633, 080009 Barcelona, Spain", "lat": 41.391455, "lon": 2.1705577 }, "geometry": { "type": "Point", "coordinates": [ 2.1705577, 41.391455 ] } },
{ "type": "Feature", "properties": { "field_1": 198, "Unnamed: 0": 5212, "title": "De Tapas", "icon_prize": null, "average_price": "€14 - €27", "users_rate": 3.0, "number_reviews": null, "street": "C\/ Marina 22", "address_formatted": "08729 Castellet i la Gornal, Spain", "lat": 41.25977, "lon": 1.6430355 }, "geometry": { "type": "Point", "coordinates": [ 1.6430355, 41.25977 ] } },
{ "type": "Feature", "properties": { "field_1": 199, "Unnamed: 0": 5213, "title": "La Reina del Raval", "icon_prize": null, "average_price": "Mediterranean, Spanish, European", "users_rate": 3.0, "number_reviews": null, "street": "Rambla del Raval 3", "address_formatted": "Rambla del Raval, Barcelona, Spain", "lat": 41.3786363, "lon": 2.1694027 }, "geometry": { "type": "Point", "coordinates": [ 2.1694027, 41.3786363 ] } },
{ "type": "Feature", "properties": { "field_1": 200, "Unnamed: 0": 5214, "title": "Santagloria", "icon_prize": null, "average_price": "Cafe", "users_rate": 2.0, "number_reviews": null, "street": "Calle de Ganduxer, 8", "address_formatted": "Carrer de Ganduxer, 08022 Barcelona, Spain", "lat": 41.4046843, "lon": 2.1300311 }, "geometry": { "type": "Point", "coordinates": [ 2.1300311, 41.4046843 ] } },
{ "type": "Feature", "properties": { "field_1": 201, "Unnamed: 0": 5215, "title": "Paso de Agua", "icon_prize": null, "average_price": "€10 - €39", "users_rate": 4.5, "number_reviews": null, "street": "Calle La Maquinista No 13", "address_formatted": "Catalonia, Spain", "lat": 41.66667, "lon": 2.0 }, "geometry": { "type": "Point", "coordinates": [ 2.0, 41.66667 ] } },
{ "type": "Feature", "properties": { "field_1": 202, "Unnamed: 0": 5216, "title": "Meson Rincon de Galicia", "icon_prize": null, "average_price": "Spanish", "users_rate": 3.0, "number_reviews": null, "street": "Portal Nou, 61", "address_formatted": "el Portal, Carrer Nou, 08540 Centelles, Spain", "lat": 41.798064, "lon": 2.2183227 }, "geometry": { "type": "Point", "coordinates": [ 2.2183227, 41.798064 ] } },
{ "type": "Feature", "properties": { "field_1": 203, "Unnamed: 0": 5217, "title": "Farga", "icon_prize": null, "average_price": "Breakfast, Brunch", "users_rate": 3.0, "number_reviews": null, "street": "Corcega 317", "address_formatted": "Corsican Mouflon, Plaça de Joan Fiveller, Barcelona, Spain", "lat": 41.3859039, "lon": 2.1890049 }, "geometry": { "type": "Point", "coordinates": [ 2.1890049, 41.3859039 ] } },
{ "type": "Feature", "properties": { "field_1": 204, "Unnamed: 0": 5218, "title": "Jin Du", "icon_prize": null, "average_price": "Chinese, Spanish, Asian", "users_rate": 2.5, "number_reviews": null, "street": "C\/ Gran Via 758", "address_formatted": "Gran Via, 08206 Sabadell, Spain", "lat": 41.5610724, "lon": 2.1013811 }, "geometry": { "type": "Point", "coordinates": [ 2.1013811, 41.5610724 ] } },
{ "type": "Feature", "properties": { "field_1": 205, "Unnamed: 0": 5219, "title": "La llavor d'Isis", "icon_prize": null, "average_price": "Spanish, Mediterranean", "users_rate": 3.0, "number_reviews": null, "street": "Pl. Major 12", "address_formatted": "Plaça Major, Cal Cominçà, Berga, Catalonia, Spain", "lat": 42.0941638, "lon": 1.8343023 }, "geometry": { "type": "Point", "coordinates": [ 1.8343023, 42.0941638 ] } },
{ "type": "Feature", "properties": { "field_1": 206, "Unnamed: 0": 5220, "title": "Il pomo d'oro", "icon_prize": null, "average_price": "Italian, Pizza, Mediterranean", "users_rate": 3.0, "number_reviews": null, "street": "De Les Corts Catalanes 618", "address_formatted": "Catalonia, Spain", "lat": 41.66667, "lon": 2.0 }, "geometry": { "type": "Point", "coordinates": [ 2.0, 41.66667 ] } },
{ "type": "Feature", "properties": { "field_1": 207, "Unnamed: 0": 5221, "title": "Restaurante Rincon Manchego", "icon_prize": null, "average_price": "Mediterranean", "users_rate": 2.5, "number_reviews": null, "street": "Calle Pintor Tapiro 8", "address_formatted": "Carrer Pintor Tapiró, 08903 l'Hospitalet de Llobregat, Spain", "lat": 41.3777596, "lon": 2.1186999 }, "geometry": { "type": "Point", "coordinates": [ 2.1186999, 41.3777596 ] } },
{ "type": "Feature", "properties": { "field_1": 208, "Unnamed: 0": 5222, "title": "210bar carrer casanova Barcelone", "icon_prize": null, "average_price": "Bar, Pub", "users_rate": 1.0, "number_reviews": null, "street": "210 Bar", "address_formatted": "210, T1 Airport exit, 08820 el Prat de Llobregat, Spain", "lat": 41.2916683, "lon": 2.0720517 }, "geometry": { "type": "Point", "coordinates": [ 2.0720517, 41.2916683 ] } },
{ "type": "Feature", "properties": { "field_1": 209, "Unnamed: 0": 5223, "title": "Foster's Hollywood", "icon_prize": null, "average_price": "American", "users_rate": 2.5, "number_reviews": null, "street": "C\/Passeig De Potosi 2", "address_formatted": "Catalonia, Spain", "lat": 41.66667, "lon": 2.0 }, "geometry": { "type": "Point", "coordinates": [ 2.0, 41.66667 ] } },
{ "type": "Feature", "properties": { "field_1": 210, "Unnamed: 0": 5224, "title": "Jaipur Palace Indian Restaurant", "icon_prize": null, "average_price": "Indian", "users_rate": 2.5, "number_reviews": null, "street": "C Mexic, 17", "address_formatted": "Mexic, 08320 el Masnou, Spain", "lat": 41.4837612, "lon": 2.3278275 }, "geometry": { "type": "Point", "coordinates": [ 2.3278275, 41.4837612 ] } },
{ "type": "Feature", "properties": { "field_1": 211, "Unnamed: 0": 5225, "title": "Zen Sushi creativo", "icon_prize": null, "average_price": "Japanese, Sushi, Asian", "users_rate": 3.0, "number_reviews": null, "street": "Calle Villarroel 220,08036", "address_formatted": "08036, Spain", "lat": 41.3888, "lon": 2.159 }, "geometry": { "type": "Point", "coordinates": [ 2.159, 41.3888 ] } },
{ "type": "Feature", "properties": { "field_1": 212, "Unnamed: 0": 5226, "title": "Bar Anton", "icon_prize": null, "average_price": "Spanish", "users_rate": 2.0, "number_reviews": null, "street": "Carrer de Valencia, 453", "address_formatted": "Bar Anton, Carrer de València, 453, 08088 Barcelona, Spain", "lat": 41.4031882, "lon": 2.1770536 }, "geometry": { "type": "Point", "coordinates": [ 2.1770536, 41.4031882 ] } },
{ "type": "Feature", "properties": { "field_1": 213, "Unnamed: 0": 5227, "title": "Suite 191", "icon_prize": null, "average_price": "European, Spanish", "users_rate": 2.5, "number_reviews": null, "street": "Aribau 191", "address_formatted": "Aribau, 08204 Sabadell, Spain", "lat": 41.5283818, "lon": 2.1105725 }, "geometry": { "type": "Point", "coordinates": [ 2.1105725, 41.5283818 ] } },
{ "type": "Feature", "properties": { "field_1": 214, "Unnamed: 0": 5228, "title": "La Vespa Panaderia Degustacion", "icon_prize": null, "average_price": "Cafe, Spanish", "users_rate": 2.0, "number_reviews": null, "street": "Carrer del Consell de Cent 456", "address_formatted": "Carrer del Consell de Cent, 456, 08007 Barcelona, Spain", "lat": 41.3988059, "lon": 2.1761685 }, "geometry": { "type": "Point", "coordinates": [ 2.1761685, 41.3988059 ] } },
{ "type": "Feature", "properties": { "field_1": 215, "Unnamed: 0": 5229, "title": "Edelweiss", "icon_prize": null, "average_price": "Japanese", "users_rate": 1.0, "number_reviews": null, "street": "Carrer de la Granada del Penedes, 19", "address_formatted": "Carrer de la Granada del Penedès, 08006 Barcelona, Spain", "lat": 41.3969659, "lon": 2.1527906 }, "geometry": { "type": "Point", "coordinates": [ 2.1527906, 41.3969659 ] } },
{ "type": "Feature", "properties": { "field_1": 216, "Unnamed: 0": 5230, "title": "Burr & Taco", "icon_prize": null, "average_price": "Mexican", "users_rate": 1.0, "number_reviews": null, "street": "Calle Boters Number 15", "address_formatted": "Carrer Boters, 08750 Molins de Rei, Spain", "lat": 41.41273, "lon": 2.01667 }, "geometry": { "type": "Point", "coordinates": [ 2.01667, 41.41273 ] } },
{ "type": "Feature", "properties": { "field_1": 217, "Unnamed: 0": 5231, "title": "Can Tomaquet", "icon_prize": null, "average_price": "Mediterranean, Spanish, Contemporary", "users_rate": 3.0, "number_reviews": null, "street": "Placa d'Orfila, 12", "address_formatted": "Plaça d'Orfila, Passeig de Torras i Bages, 08030 Barcelona, Spain", "lat": 41.436003, "lon": 2.1910264 }, "geometry": { "type": "Point", "coordinates": [ 2.1910264, 41.436003 ] } },
{ "type": "Feature", "properties": { "field_1": 218, "Unnamed: 0": 5232, "title": "Foster's Hollywood", "icon_prize": null, "average_price": "Lunch, Dinner", "users_rate": 3.0, "number_reviews": null, "street": "Avda. Diagonal, 3", "address_formatted": "Foster’s Hollywood, Avinguda Diagonal, 3, 08021 Barcelona, Spain", "lat": 41.3921, "lon": 2.14477 }, "geometry": { "type": "Point", "coordinates": [ 2.14477, 41.3921 ] } },
{ "type": "Feature", "properties": { "field_1": 219, "Unnamed: 0": 5233, "title": "Gala Restaurant", "icon_prize": null, "average_price": "€6 - €28", "users_rate": 3.0, "number_reviews": null, "street": "Carrer de Joan Torras 26", "address_formatted": "Carrer de Joan Torras, 26, 08030 Barcelona, Spain", "lat": 41.4376029, "lon": 2.1907914 }, "geometry": { "type": "Point", "coordinates": [ 2.1907914, 41.4376029 ] } },
{ "type": "Feature", "properties": { "field_1": 220, "Unnamed: 0": 5234, "title": "Garbi Snack-Bar", "icon_prize": null, "average_price": "Spanish", "users_rate": 3.5, "number_reviews": null, "street": "470 Gran Via", "address_formatted": "Gran Via, 08206 Sabadell, Spain", "lat": 41.5610724, "lon": 2.1013811 }, "geometry": { "type": "Point", "coordinates": [ 2.1013811, 41.5610724 ] } },
{ "type": "Feature", "properties": { "field_1": 221, "Unnamed: 0": 5235, "title": "izan Corner", "icon_prize": null, "average_price": "€5 - €25", "users_rate": 5.0, "number_reviews": null, "street": "Carrer de la Cerdanya, 3. Rubi", "address_formatted": "Carrer de la Cerdanya, 08777 Font-rubí, Spain", "lat": 41.4433577, "lon": 1.6213782 }, "geometry": { "type": "Point", "coordinates": [ 1.6213782, 41.4433577 ] } },
{ "type": "Feature", "properties": { "field_1": 222, "Unnamed: 0": 5236, "title": "Restaurante Chino Pekin", "icon_prize": null, "average_price": "Chinese, Asian", "users_rate": 3.0, "number_reviews": null, "street": "Aparici, N0 4 - Caldes de Montbui", "address_formatted": "Carrer Aparici, 08140 Caldes de Montbui, Spain", "lat": 41.6315884, "lon": 2.1660936 }, "geometry": { "type": "Point", "coordinates": [ 2.1660936, 41.6315884 ] } },
{ "type": "Feature", "properties": { "field_1": 223, "Unnamed: 0": 5237, "title": "La Bodegueta de les Corts", "icon_prize": null, "average_price": null, "users_rate": 2.5, "number_reviews": null, "street": "Travessera de les Corts 154", "address_formatted": "Travessera de les Corts, 08021 Barcelona, Spain", "lat": 41.3891656, "lon": 2.1391362 }, "geometry": { "type": "Point", "coordinates": [ 2.1391362, 41.3891656 ] } },
{ "type": "Feature", "properties": { "field_1": 224, "Unnamed: 0": 5238, "title": "Petipe", "icon_prize": null, "average_price": "€4 - €6", "users_rate": 1.0, "number_reviews": null, "street": "Vic 25", "address_formatted": "Vic, Catalonia, Spain", "lat": 41.9302021, "lon": 2.2545943 }, "geometry": { "type": "Point", "coordinates": [ 2.2545943, 41.9302021 ] } },
{ "type": "Feature", "properties": { "field_1": 225, "Unnamed: 0": 5239, "title": "Restaurant Saraba", "icon_prize": null, "average_price": "€8 - €15", "users_rate": 4.5, "number_reviews": null, "street": "Carrer de Villarroel, 30", "address_formatted": "Carrer de Villarroel, 30, 08011 Barcelona, Spain", "lat": 41.381884, "lon": 2.161525 }, "geometry": { "type": "Point", "coordinates": [ 2.161525, 41.381884 ] } },
{ "type": "Feature", "properties": { "field_1": 226, "Unnamed: 0": 5240, "title": "Restaurante Mabi", "icon_prize": null, "average_price": "Mediterranean, European, Spanish", "users_rate": 3.0, "number_reviews": null, "street": "Constanca 6", "address_formatted": "Constança, Carrer de Constança, 08021 Barcelona, Spain", "lat": 41.3892684, "lon": 2.1348248 }, "geometry": { "type": "Point", "coordinates": [ 2.1348248, 41.3892684 ] } },
{ "type": "Feature", "properties": { "field_1": 227, "Unnamed: 0": 5241, "title": "La Grotta del Clot", "icon_prize": null, "average_price": "Italian, Pizza, Fast Food", "users_rate": 2.5, "number_reviews": null, "street": "Carrer Del Clot 179", "address_formatted": "Carrer del Clot, 08026 Barcelona, Spain", "lat": 41.4164135, "lon": 2.1914015 }, "geometry": { "type": "Point", "coordinates": [ 2.1914015, 41.4164135 ] } },
{ "type": "Feature", "properties": { "field_1": 228, "Unnamed: 0": 5242, "title": "La Penultima Del Clot", "icon_prize": null, "average_price": "Breakfast, Lunch, Dinner, Drinks", "users_rate": 3.5, "number_reviews": null, "street": "Avinguda Meridiana, 97", "address_formatted": "Avinguda Meridiana, 97, 08026 Barcelona, Spain", "lat": 41.4069687, "lon": 2.1865602 }, "geometry": { "type": "Point", "coordinates": [ 2.1865602, 41.4069687 ] } },
{ "type": "Feature", "properties": { "field_1": 229, "Unnamed: 0": 5243, "title": "Am8 Cafe", "icon_prize": null, "average_price": "€2 - €10", "users_rate": 2.5, "number_reviews": null, "street": "Carrer d'Ausias Marc, 4", "address_formatted": "Carrer d'Ausiàs Marc, 08840 Viladecans, Spain", "lat": 41.3191887, "lon": 2.0227251 }, "geometry": { "type": "Point", "coordinates": [ 2.0227251, 41.3191887 ] } },
{ "type": "Feature", "properties": { "field_1": 230, "Unnamed: 0": 5244, "title": "Chirringuito Las Vegas", "icon_prize": null, "average_price": "Spanish", "users_rate": 2.0, "number_reviews": null, "street": "Carrer de Pontevedra", "address_formatted": "Carrer de Pontevedra, 08 Barcelona, Spain", "lat": 41.3784024, "lon": 2.1901748 }, "geometry": { "type": "Point", "coordinates": [ 2.1901748, 41.3784024 ] } },
{ "type": "Feature", "properties": { "field_1": 231, "Unnamed: 0": 5245, "title": "Nass Beach", "icon_prize": null, "average_price": "Bar, Mediterranean, European, Spanish, Contemporary, Pub, Fusion", "users_rate": 2.5, "number_reviews": null, "street": "Pl. Del Mar, S\/N", "address_formatted": "Plaça del Mar, Sant Oleguer, Sabadell, Catalonia, Spain", "lat": 41.5428572, "lon": 2.1174591 }, "geometry": { "type": "Point", "coordinates": [ 2.1174591, 41.5428572 ] } },
{ "type": "Feature", "properties": { "field_1": 232, "Unnamed: 0": 5246, "title": "La caseta del migdia", "icon_prize": null, "average_price": "Mediterranean, Spanish, European", "users_rate": 3.0, "number_reviews": null, "street": "Montjuic", "address_formatted": "08004 Barcelona, Spain", "lat": 41.3647625, "lon": 2.154233 }, "geometry": { "type": "Point", "coordinates": [ 2.154233, 41.3647625 ] } },
{ "type": "Feature", "properties": { "field_1": 233, "Unnamed: 0": 5247, "title": "Nou Mundial", "icon_prize": null, "average_price": "Cafe, International, Spanish", "users_rate": 2.5, "number_reviews": null, "street": "130 Travessera de Les Corts", "address_formatted": "Travessera de les Corts, 08021 Barcelona, Spain", "lat": 41.3891656, "lon": 2.1391362 }, "geometry": { "type": "Point", "coordinates": [ 2.1391362, 41.3891656 ] } },
{ "type": "Feature", "properties": { "field_1": 234, "Unnamed: 0": 5248, "title": "El Bergueda", "icon_prize": null, "average_price": null, "users_rate": 2.0, "number_reviews": null, "street": "Canuda, 11", "address_formatted": "Restaurante cafeteria el Fergueda, Carrer de la Canuda, 11, 08001 Barcelona, Spain", "lat": 41.3847542, "lon": 2.1715098 }, "geometry": { "type": "Point", "coordinates": [ 2.1715098, 41.3847542 ] } },
{ "type": "Feature", "properties": { "field_1": 235, "Unnamed: 0": 5249, "title": "Bar restauran Reventos", "icon_prize": null, "average_price": "Spanish, Diner", "users_rate": 2.5, "number_reviews": null, "street": "Carrer Rec Comtal, 2", "address_formatted": "Hotel Catalonia Born, Carrer del Rec Comtal, 16-18, 08003 Barcelona, Spain", "lat": 41.3896556, "lon": 2.1798933 }, "geometry": { "type": "Point", "coordinates": [ 2.1798933, 41.3896556 ] } },
{ "type": "Feature", "properties": { "field_1": 236, "Unnamed: 0": 5250, "title": "Bar Sol Restaurante", "icon_prize": null, "average_price": "Breakfast, Lunch, Dinner", "users_rate": 2.0, "number_reviews": null, "street": "Carrer de Napols, 8", "address_formatted": "carrer de Nàpols, 8, 08914 Badalona, Spain", "lat": 41.440621, "lon": 2.2266194 }, "geometry": { "type": "Point", "coordinates": [ 2.2266194, 41.440621 ] } },
{ "type": "Feature", "properties": { "field_1": 237, "Unnamed: 0": 5251, "title": "Caferabia", "icon_prize": null, "average_price": null, "users_rate": 2.0, "number_reviews": null, "street": "Placa Portal de la pau, 4", "address_formatted": "Portal de la Pau, Passeig de Colom, CP 08003 Barcelona, Spain", "lat": 41.376698, "lon": 2.178483 }, "geometry": { "type": "Point", "coordinates": [ 2.178483, 41.376698 ] } },
{ "type": "Feature", "properties": { "field_1": 238, "Unnamed: 0": 5252, "title": "Tapasbar Bruc", "icon_prize": null, "average_price": "Spanish", "users_rate": 2.0, "number_reviews": null, "street": "Carrer de Bruc", "address_formatted": "Carrer de Bruc, 088800 Cubelles, Spain", "lat": 41.2021239, "lon": 1.6805162 }, "geometry": { "type": "Point", "coordinates": [ 1.6805162, 41.2021239 ] } },